[
  {
    "id": 8191,
    "title": "Quiosk Boxtel",
    "name": "Quiosk V146 - Tinq Boxtel",
    "city": "Boxtel",
    "postcode": "5281 AC",
    "address": "Brederodeweg 26",
    "coords": {
      "lat": 51.585111,
      "lng": 5.3315494
    },
    "isOpen": true,
    "environment": "Outdoor",
    "contactless": true,
    "products": [
      "Drinks",
      "Snacks"
    ]
  },
  {
    "id": 9402,
    "title": "Quiosk Utrecht",
    "name": "Quiosk V371 - In2Retail Utrecht",
    "city": "Utrecht",
    "postcode": "3511 BA",
    "address": "Vredenburg 4",
    "coords": {
      "lat": 52.0922452,
      "lng": 5.115163799999999
    },
    "isOpen": true,
    "environment": "Outdoor",
    "contactless": true,
    "products": [
      "Drinks",
      "Snacks"
    ]
  },
  {
    "id": 9164,
    "title": "Quiosk Veghel",
    "name": "Quiosk V361 - Greenpoint Veghel",
    "city": "Veghel",
    "postcode": "5465 TD",
    "address": "Doornhoek 4115",
    "coords": {
      "lat": 51.5989563,
      "lng": 5.522039299999999
    },
    "isOpen": true,
    "environment": "Outdoor",
    "contactless": true,
    "products": [
      "Drinks",
      "Snacks"
    ]
  },
  {
    "id": 9163,
    "title": "Quiosk Margraten",
    "name": "Quiosk V360 - Avia Vollenhoven Margraten",
    "city": "Margraten",
    "postcode": "6269 BE",
    "address": "Aan de Fremme 34",
    "coords": {
      "lat": 50.8195553,
      "lng": 5.8334012
    },
    "isOpen": true,
    "environment": "Outdoor",
    "contactless": true,
    "products": [
      "Drinks",
      "Snacks"
    ]
  },
  {
    "id": 9161,
    "title": "Quiosk Norg",
    "name": "Quiosk V358 - Avia Weghorst Norg",
    "city": "Norg",
    "postcode": "9331 VE",
    "address": "Eenerstraat 65",
    "coords": {
      "lat": 53.0677088,
      "lng": 6.4456701
    },
    "isOpen": true,
    "environment": "Outdoor",
    "contactless": true,
    "products": [
      "Drinks",
      "Snacks"
    ]
  },
  {
    "id": 9160,
    "title": "Quiosk Eindhoven",
    "name": "Quiosk V357 - Tamoil Eindhoven Konijnenburglaan",
    "city": "Eindhoven",
    "postcode": "5613 DW",
    "address": "Willem van Konijnenburglaan 7",
    "coords": {
      "lat": 51.438514,
      "lng": 5.494500899999999
    },
    "isOpen": true,
    "environment": "Outdoor",
    "contactless": true,
    "products": [
      "Drinks",
      "Snacks"
    ]
  },
  {
    "id": 9157,
    "title": "Quiosk Eindhoven",
    "name": "Quiosk V354 - Tamoil Eindhoven Tongelrestraat",
    "city": "Eindhoven",
    "postcode": "5642 NH",
    "address": "Tongelresestraat 446",
    "coords": {
      "lat": 51.4431988,
      "lng": 5.5128835
    },
    "isOpen": true,
    "environment": "Outdoor",
    "contactless": true,
    "products": [
      "Drinks",
      "Snacks"
    ]
  },
  {
    "id": 9156,
    "title": "Quiosk Eindhoven",
    "name": "Quiosk V353 - Tamoil Eindhoven Matsyslaan",
    "city": "Eindhoven",
    "postcode": "5642 JC",
    "address": "Quinten Matsyslaan 65",
    "coords": {
      "lat": 51.4352811,
      "lng": 5.515499
    },
    "isOpen": true,
    "environment": "Outdoor",
    "contactless": true,
    "products": [
      "Drinks",
      "Snacks"
    ]
  },
  {
    "id": 9155,
    "title": "Quiosk Emmeloord",
    "name": "Quiosk V352 - Tamoil Emmeloord",
    "city": "Emmeloord",
    "postcode": "8304 AD",
    "address": "Industrieweg 6",
    "coords": {
      "lat": 52.7028079,
      "lng": 5.7466612
    },
    "isOpen": true,
    "environment": "Outdoor",
    "contactless": true,
    "products": [
      "Drinks",
      "Snacks"
    ]
  },
  {
    "id": 9153,
    "title": "Quiosk Geldermalsen",
    "name": "Quiosk V350 - Tamoil Geldermalsen",
    "city": "Geldermalsen",
    "postcode": "4191 CL",
    "address": "Rijnstraat 32",
    "coords": {
      "lat": 51.88832799999999,
      "lng": 5.300774
    },
    "isOpen": true,
    "environment": "Outdoor",
    "contactless": true,
    "products": [
      "Drinks",
      "Snacks"
    ]
  },
  {
    "id": 9152,
    "title": "Quiosk Ommen",
    "name": "Quiosk V349 - Shell Ommen",
    "city": "Ommen",
    "postcode": "7731 CM",
    "address": "Den Oordt 3",
    "coords": {
      "lat": 52.51786689999999,
      "lng": 6.4245057
    },
    "isOpen": true,
    "environment": "Outdoor",
    "contactless": true,
    "products": [
      "Drinks",
      "Snacks"
    ]
  },
  {
    "id": 9151,
    "title": "Quiosk Breda",
    "name": "Quiosk V348/334 - Basiq Cleaning Breda",
    "city": "Breda",
    "postcode": "4817 ZE",
    "address": "Gijzenveld 9",
    "coords": {
      "lat": 51.5965488,
      "lng": 4.8273266
    },
    "isOpen": true,
    "environment": "Outdoor",
    "contactless": true,
    "products": [
      "Drinks",
      "Snacks"
    ]
  },
  {
    "id": 9150,
    "title": "Quiosk Steenwijk",
    "name": "Quiosk V347 - Tamoil Steenwijk",
    "city": "Steenwijk",
    "postcode": "8331 LL",
    "address": "Dolderweg 48 A",
    "coords": {
      "lat": 52.78814029999999,
      "lng": 6.0932234
    },
    "isOpen": true,
    "environment": "Outdoor",
    "contactless": true,
    "products": [
      "Drinks",
      "Snacks"
    ]
  },
  {
    "id": 9149,
    "title": "Quiosk Haps",
    "name": "Quiosk V346 - Greenpoint Haps",
    "city": "Haps",
    "postcode": "5443 PW",
    "address": "Klopsteen 4",
    "coords": {
      "lat": 51.6884855,
      "lng": 5.8801036
    },
    "isOpen": true,
    "environment": "Outdoor",
    "contactless": true,
    "products": [
      "Drinks",
      "Snacks"
    ]
  },
  {
    "id": 9148,
    "title": "Quiosk Beek en Donk",
    "name": "Quiosk V345 - Avia Vollenhoven Beek en Donk Oranjelaan",
    "city": "Beek en Donk",
    "postcode": "5741 HH",
    "address": "Oranjelaan 42 B",
    "coords": {
      "lat": 51.521617,
      "lng": 5.6400848
    },
    "isOpen": true,
    "environment": "Outdoor",
    "contactless": true,
    "products": [
      "Drinks",
      "Snacks"
    ]
  },
  {
    "id": 8057,
    "title": "Quiosk Zwolle",
    "name": "Quiosk V340 - Shell Tamoil Zwolle",
    "city": "Zwolle",
    "postcode": "8019 AG",
    "address": "Nieuwe Veerallee 12",
    "coords": {
      "lat": 52.5081149,
      "lng": 6.0820785
    },
    "isOpen": true,
    "environment": "Outdoor",
    "contactless": true,
    "products": [
      "Drinks",
      "Snacks"
    ]
  },
  {
    "id": 9011,
    "title": "Quiosk Den Haag",
    "name": "Quiosk V330 - Esso Express Den Haag",
    "city": "Den Haag",
    "postcode": "2531 PS",
    "address": "Middachtenweg 287 A",
    "coords": {
      "lat": 52.04799389999999,
      "lng": 4.3025375
    },
    "isOpen": true,
    "environment": "Outdoor",
    "contactless": true,
    "products": [
      "Drinks",
      "Snacks"
    ]
  },
  {
    "id": 9010,
    "title": "Quiosk Druten",
    "name": "Quiosk V329 - TinQ Druten",
    "city": "Druten",
    "postcode": "6651 EE",
    "address": "Van Heemstraweg 75",
    "coords": {
      "lat": 51.8859443,
      "lng": 5.584376199999999
    },
    "isOpen": true,
    "environment": "Outdoor",
    "contactless": true,
    "products": [
      "Drinks",
      "Snacks"
    ]
  },
  {
    "id": 9009,
    "title": "Quiosk Veenendaal",
    "name": "Quiosk V328 - Esso Veenendaal",
    "city": "Veenendaal",
    "postcode": "3901 ED",
    "address": "Industrielaan 1 A",
    "coords": {
      "lat": 52.01970129999999,
      "lng": 5.5523922
    },
    "isOpen": true,
    "environment": "Outdoor",
    "contactless": true,
    "products": [
      "Drinks",
      "Snacks"
    ]
  },
  {
    "id": 9008,
    "title": "Quiosk Terneuzen",
    "name": "Quiosk V327 - Agri Go Terneuzen",
    "city": "Terneuzen",
    "postcode": "4538 AB",
    "address": "Stationsweg 33",
    "coords": {
      "lat": 51.3310119,
      "lng": 3.8267969
    },
    "isOpen": true,
    "environment": "Outdoor",
    "contactless": true,
    "products": [
      "Drinks",
      "Snacks"
    ]
  },
  {
    "id": 9007,
    "title": "Quiosk Sittard",
    "name": "Quiosk V326 - Leap24 Sittard",
    "city": "Sittard",
    "postcode": "6135 LL",
    "address": "Kopenhagenstraat 40",
    "coords": {
      "lat": 50.995669,
      "lng": 5.846796299999999
    },
    "isOpen": true,
    "environment": "Outdoor",
    "contactless": true,
    "products": [
      "Drinks",
      "Snacks"
    ]
  },
  {
    "id": 9006,
    "title": "Quiosk Baarn",
    "name": "Quiosk V325 - Esso Baarn",
    "city": "Baarn",
    "postcode": "3744 MA",
    "address": "Amsterdamsestraatweg 61",
    "coords": {
      "lat": 52.2217378,
      "lng": 5.257545899999999
    },
    "isOpen": true,
    "environment": "Outdoor",
    "contactless": true,
    "products": [
      "Drinks",
      "Snacks"
    ]
  },
  {
    "id": 9005,
    "title": "Quiosk Genemuiden",
    "name": "Quiosk V324 - SuperTank Genemuiden",
    "city": "Genemuiden",
    "postcode": "8281 JE",
    "address": "Nijverheidstraat 4",
    "coords": {
      "lat": 52.6261632,
      "lng": 6.0542557
    },
    "isOpen": true,
    "environment": "Outdoor",
    "contactless": true,
    "products": [
      "Drinks",
      "Snacks"
    ]
  },
  {
    "id": 9004,
    "title": "Quiosk Goes",
    "name": "Quiosk V323 - Agri Go Goes",
    "city": "Goes",
    "postcode": "4462 HJ",
    "address": "Hudsonweg 21",
    "coords": {
      "lat": 51.48294430000001,
      "lng": 3.8943849
    },
    "isOpen": true,
    "environment": "Outdoor",
    "contactless": true,
    "products": [
      "Drinks",
      "Snacks"
    ]
  },
  {
    "id": 9003,
    "title": "Quiosk Apeldoorn",
    "name": "Quiosk V322 - Esso Apeldoorn Laan van Zeven",
    "city": "Apeldoorn",
    "postcode": "7322 PG",
    "address": "Laan van Zevenhuizen 396",
    "coords": {
      "lat": 52.2207242,
      "lng": 5.998497599999999
    },
    "isOpen": true,
    "environment": "Outdoor",
    "contactless": true,
    "products": [
      "Drinks",
      "Snacks"
    ]
  },
  {
    "id": 9001,
    "title": "Quiosk Vlissingen",
    "name": "Quiosk V320 - Leap24 Vlissingen",
    "city": "Vlissingen",
    "postcode": "4382 WW",
    "address": "Energieweg 1",
    "coords": {
      "lat": 51.4552202,
      "lng": 3.5925736
    },
    "isOpen": true,
    "environment": "Outdoor",
    "contactless": true,
    "products": [
      "Drinks",
      "Snacks"
    ]
  },
  {
    "id": 8998,
    "title": "Quiosk Amstelveen",
    "name": "Quiosk V317 - Esso Amstelveen Beneluxbaan Oost",
    "city": "Amstelveen",
    "postcode": "1183 ZZ",
    "address": "Beneluxbaan 10",
    "coords": {
      "lat": 52.31773459999999,
      "lng": 4.870156199999999
    },
    "isOpen": true,
    "environment": "Outdoor",
    "contactless": true,
    "products": [
      "Drinks",
      "Snacks"
    ]
  },
  {
    "id": 8997,
    "title": "Quiosk Aalsmeer",
    "name": "Quiosk V316 - Avia Marees Aalsmeer",
    "city": "Aalsmeer",
    "postcode": "1431 GC",
    "address": "Legmeerdijk 324",
    "coords": {
      "lat": 52.2547293,
      "lng": 4.7812321
    },
    "isOpen": true,
    "environment": "Outdoor",
    "contactless": true,
    "products": [
      "Drinks",
      "Snacks"
    ]
  },
  {
    "id": 8996,
    "title": "Quiosk Heerenveen",
    "name": "Quiosk V315 - Supertank Heerenveen",
    "city": "Heerenveen",
    "postcode": "8488 CC",
    "address": "Saturnus 6",
    "coords": {
      "lat": 52.9722246,
      "lng": 5.933141399999999
    },
    "isOpen": true,
    "environment": "Outdoor",
    "contactless": true,
    "products": [
      "Drinks",
      "Snacks"
    ]
  },
  {
    "id": 8995,
    "title": "Quiosk Utrecht",
    "name": "Quiosk V314 - Esso Utrecht Biltse Rading",
    "city": "Utrecht",
    "postcode": "3573 PR",
    "address": "Biltse Rading 100",
    "coords": {
      "lat": 52.1025293,
      "lng": 5.1471104
    },
    "isOpen": true,
    "environment": "Outdoor",
    "contactless": true,
    "products": [
      "Drinks",
      "Snacks"
    ]
  },
  {
    "id": 8993,
    "title": "Quiosk Leek",
    "name": "Quiosk V312 - Avia Weghorst Leek",
    "city": "Leek",
    "postcode": "9351 VR",
    "address": "Vossenkamp 8",
    "coords": {
      "lat": 53.1878914,
      "lng": 6.3725067
    },
    "isOpen": true,
    "environment": "Outdoor",
    "contactless": true,
    "products": [
      "Drinks",
      "Snacks"
    ]
  },
  {
    "id": 8992,
    "title": "Quiosk Apeldoorn",
    "name": "Quiosk V311 - TinQ Apeldoorn Arnhemseweg",
    "city": "Apeldoorn",
    "postcode": "7331 JC",
    "address": "Arnhemseweg 221",
    "coords": {
      "lat": 52.1955022,
      "lng": 5.9624296
    },
    "isOpen": true,
    "environment": "Outdoor",
    "contactless": true,
    "products": [
      "Drinks",
      "Snacks"
    ]
  },
  {
    "id": 8093,
    "title": "Quiosk Alkmaar",
    "name": "Quiosk V310 - GP Groot Alkmaar",
    "city": "Alkmaar",
    "postcode": "1821 BV",
    "address": "Einthovenstraat 1 A",
    "coords": {
      "lat": 52.6252492,
      "lng": 4.7709184
    },
    "isOpen": true,
    "environment": "Outdoor",
    "contactless": true,
    "products": [
      "Drinks",
      "Snacks"
    ]
  },
  {
    "id": 8990,
    "title": "Quiosk Eibergen",
    "name": "Quiosk V309 - Argos Eibergen",
    "city": "Eibergen",
    "postcode": "7151 HX",
    "address": "Groenloseweg 7",
    "coords": {
      "lat": 52.09411910000001,
      "lng": 6.6507979
    },
    "isOpen": true,
    "environment": "Outdoor",
    "contactless": true,
    "products": [
      "Drinks",
      "Snacks"
    ]
  },
  {
    "id": 8989,
    "title": "Quiosk Enschede",
    "name": "Quiosk V308 - Leap24 Enschede",
    "city": "Enschede",
    "postcode": "7545 LV",
    "address": "Het Poolman 13",
    "coords": {
      "lat": 52.2178215,
      "lng": 6.867292699999999
    },
    "isOpen": true,
    "environment": "Outdoor",
    "contactless": true,
    "products": [
      "Drinks",
      "Snacks"
    ]
  },
  {
    "id": 8986,
    "title": "Quiosk Reduzum",
    "name": "Quiosk V305 - Shell Tamoil Reduzum",
    "city": "Reduzum",
    "postcode": "9008 AS",
    "address": "Overijsselsestraatweg 1 A",
    "coords": {
      "lat": 53.1073082,
      "lng": 5.783944
    },
    "isOpen": true,
    "environment": "Outdoor",
    "contactless": true,
    "products": [
      "Drinks",
      "Snacks"
    ]
  },
  {
    "id": 8985,
    "title": "Quiosk Sibculo",
    "name": "Quiosk V304 - Argos Sibculo",
    "city": "Sibculo",
    "postcode": "7693 TA",
    "address": "Kloosterstraat 11",
    "coords": {
      "lat": 52.4860985,
      "lng": 6.6522199
    },
    "isOpen": true,
    "environment": "Outdoor",
    "contactless": true,
    "products": [
      "Drinks",
      "Snacks"
    ]
  },
  {
    "id": 8984,
    "title": "Quiosk Eindhoven",
    "name": "Quiosk V303 - Esso Express Eindhoven",
    "city": "Eindhoven",
    "postcode": "5615 JV",
    "address": "Boutenslaan 34",
    "coords": {
      "lat": 51.42508360000001,
      "lng": 5.4747119
    },
    "isOpen": true,
    "environment": "Outdoor",
    "contactless": true,
    "products": [
      "Drinks",
      "Snacks"
    ]
  },
  {
    "id": 8983,
    "title": "Quiosk Winterswijk",
    "name": "Quiosk V302 - Argos Winterswijk",
    "city": "Winterswijk",
    "postcode": "7102 EZ",
    "address": "Tuunterstraat 42",
    "coords": {
      "lat": 51.9723459,
      "lng": 6.707817599999999
    },
    "isOpen": true,
    "environment": "Outdoor",
    "contactless": true,
    "products": [
      "Drinks",
      "Snacks"
    ]
  },
  {
    "id": 8980,
    "title": "Quiosk Schoonoord",
    "name": "Quiosk V299 - Argos Schoonoord",
    "city": "Schoonoord",
    "postcode": "7848 AM",
    "address": "Maatschappijweg 1",
    "coords": {
      "lat": 52.8396795,
      "lng": 6.762156099999999
    },
    "isOpen": true,
    "environment": "Outdoor",
    "contactless": true,
    "products": [
      "Drinks",
      "Snacks"
    ]
  },
  {
    "id": 8979,
    "title": "Quiosk Lichtenvoorde",
    "name": "Quiosk V298 - Argos Lichtenvoorde",
    "city": "Lichtenvoorde",
    "postcode": "7131 PG",
    "address": "Albert Schweitzerstraat 5",
    "coords": {
      "lat": 51.9924963,
      "lng": 6.5867495
    },
    "isOpen": true,
    "environment": "Outdoor",
    "contactless": true,
    "products": [
      "Drinks",
      "Snacks"
    ]
  },
  {
    "id": 8978,
    "title": "Quiosk Emmen",
    "name": "Quiosk V297 - Avia ABM Emmen",
    "city": "Emmen",
    "postcode": "7811 KG",
    "address": "Noordbargerstraat 12",
    "coords": {
      "lat": 52.77686430000001,
      "lng": 6.8945343
    },
    "isOpen": true,
    "environment": "Outdoor",
    "contactless": true,
    "products": [
      "Drinks",
      "Snacks"
    ]
  },
  {
    "id": 8977,
    "title": "Quiosk Nieuwleusen",
    "name": "Quiosk V296 - Argos Nieuwleusen",
    "city": "Nieuwleusen",
    "postcode": "7711 GT",
    "address": "Den Hulst 142",
    "coords": {
      "lat": 52.5926741,
      "lng": 6.2701822
    },
    "isOpen": true,
    "environment": "Outdoor",
    "contactless": true,
    "products": [
      "Drinks",
      "Snacks"
    ]
  },
  {
    "id": 8976,
    "title": "Quiosk Belfeld",
    "name": "Quiosk V295 - Avia Vollenhoven Belfeld",
    "city": "Belfeld",
    "postcode": "5951 CC",
    "address": "Craenakker 6",
    "coords": {
      "lat": 51.3190096,
      "lng": 6.126551099999999
    },
    "isOpen": true,
    "environment": "Outdoor",
    "contactless": true,
    "products": [
      "Drinks",
      "Snacks"
    ]
  },
  {
    "id": 8975,
    "title": "Quiosk Enschede",
    "name": "Quiosk V294 - Esso Express Enschede",
    "city": "Enschede",
    "postcode": "7543 AB",
    "address": "Burgemeester Van Veenlaan 130",
    "coords": {
      "lat": 52.2050142,
      "lng": 6.879858899999999
    },
    "isOpen": true,
    "environment": "Outdoor",
    "contactless": true,
    "products": [
      "Drinks",
      "Snacks"
    ]
  },
  {
    "id": 8974,
    "title": "Quiosk Emmen",
    "name": "Quiosk V293 - Tinq Emmen",
    "city": "Emmen",
    "postcode": "7821 AB",
    "address": "Kapitein Nemostraat 17",
    "coords": {
      "lat": 52.7702731,
      "lng": 6.922042599999999
    },
    "isOpen": true,
    "environment": "Outdoor",
    "contactless": true,
    "products": [
      "Drinks",
      "Snacks"
    ]
  },
  {
    "id": 8973,
    "title": "Quiosk Emmen",
    "name": "Quiosk V292 - Argos Emmen",
    "city": "Emmen",
    "postcode": "7823 EL",
    "address": "Het Weeld 218",
    "coords": {
      "lat": 52.792206,
      "lng": 6.9402911
    },
    "isOpen": true,
    "environment": "Outdoor",
    "contactless": true,
    "products": [
      "Drinks",
      "Snacks"
    ]
  },
  {
    "id": 8972,
    "title": "Quiosk Oldenzaal",
    "name": "Quiosk V291 - Argos Oldenzaal",
    "city": "Oldenzaal",
    "postcode": "7575 AC",
    "address": "Enschedesestraat 50",
    "coords": {
      "lat": 52.3005852,
      "lng": 6.9312079
    },
    "isOpen": true,
    "environment": "Outdoor",
    "contactless": true,
    "products": [
      "Drinks",
      "Snacks"
    ]
  },
  {
    "id": 8789,
    "title": "Quiosk Ermelo",
    "name": "Quiosk V290 - Argos Ermelo",
    "city": "Ermelo",
    "postcode": "3852 AH",
    "address": "Harderwijkerweg 156",
    "coords": {
      "lat": 52.31948879999999,
      "lng": 5.624376499999999
    },
    "isOpen": true,
    "environment": "Outdoor",
    "contactless": true,
    "products": [
      "Drinks",
      "Snacks"
    ]
  },
  {
    "id": 8788,
    "title": "Quiosk Zierikzee",
    "name": "Quiosk V289 - Agri Go Zierikzee",
    "city": "Zierikzee",
    "postcode": "4301 RX",
    "address": "Ruigendijkweg 5 5",
    "coords": {
      "lat": 51.6445635,
      "lng": 3.9365322
    },
    "isOpen": true,
    "environment": "Outdoor",
    "contactless": true,
    "products": [
      "Drinks",
      "Snacks"
    ]
  },
  {
    "id": 9349,
    "title": "Quiosk Rossum",
    "name": "Quiosk V288 - Avia Weghorst Rossum",
    "city": "Rossum",
    "postcode": "7596 KA",
    "address": "Oldenzaalsestraat 2",
    "coords": {
      "lat": 52.3527644,
      "lng": 6.9277696
    },
    "isOpen": true,
    "environment": "Outdoor",
    "contactless": true,
    "products": [
      "Drinks",
      "Snacks"
    ]
  },
  {
    "id": 8786,
    "title": "Quiosk Arnhem",
    "name": "Quiosk V287 - ANAC Arnhem Overmaat 2",
    "city": "Arnhem",
    "postcode": "6831 AE",
    "address": "De Overmaat 1",
    "coords": {
      "lat": 51.9512776,
      "lng": 5.882371699999999
    },
    "isOpen": true,
    "environment": "Outdoor",
    "contactless": true,
    "products": [
      "Drinks",
      "Snacks"
    ]
  },
  {
    "id": 8785,
    "title": "Quiosk Zoetermeer",
    "name": "Quiosk V286 - Basic Wash Zoetermeer",
    "city": "Zoetermeer",
    "postcode": "2716 KA",
    "address": "Zalkerbos 1",
    "coords": {
      "lat": 52.0602743,
      "lng": 4.4654863
    },
    "isOpen": true,
    "environment": "Outdoor",
    "contactless": true,
    "products": [
      "Drinks",
      "Snacks"
    ]
  },
  {
    "id": 8784,
    "title": "Quiosk Groningen",
    "name": "Quiosk V285 - Tinq Groningen Helperzoom",
    "city": "Groningen",
    "postcode": "9722 BD",
    "address": "Helperzoom 4",
    "coords": {
      "lat": 53.2058365,
      "lng": 6.582662300000001
    },
    "isOpen": true,
    "environment": "Outdoor",
    "contactless": true,
    "products": [
      "Drinks",
      "Snacks"
    ]
  },
  {
    "id": 8079,
    "title": "Quiosk Boxtel",
    "name": "Quiosk V284 - Avia Vollenhoven Boxtel",
    "city": "Boxtel",
    "postcode": "5282 TS",
    "address": "Baandervrouwenlaan 60",
    "coords": {
      "lat": 51.6019223,
      "lng": 5.316648199999999
    },
    "isOpen": true,
    "environment": "Outdoor",
    "contactless": true,
    "products": [
      "Drinks",
      "Snacks"
    ]
  },
  {
    "id": 8782,
    "title": "Quiosk Kruiningen",
    "name": "Quiosk V283 - Agri Go Kruiningen",
    "city": "Kruiningen",
    "postcode": "4416 PX",
    "address": "Weihoek 21",
    "coords": {
      "lat": 51.4651894,
      "lng": 4.029465
    },
    "isOpen": true,
    "environment": "Outdoor",
    "contactless": true,
    "products": [
      "Drinks",
      "Snacks"
    ]
  },
  {
    "id": 8781,
    "title": "Quiosk Zelhem",
    "name": "Quiosk V282 - Tinq Zelhem",
    "city": "Zelhem",
    "postcode": "7021 LP",
    "address": "Kruisbergseweg 12 A",
    "coords": {
      "lat": 52.0133606,
      "lng": 6.3017192
    },
    "isOpen": true,
    "environment": "Outdoor",
    "contactless": true,
    "products": [
      "Drinks",
      "Snacks"
    ]
  },
  {
    "id": 8780,
    "title": "Quiosk Zeeland",
    "name": "Quiosk V281 - Tinq Zeeland",
    "city": "Zeeland",
    "postcode": "5411 RV",
    "address": "Bergmaas 2",
    "coords": {
      "lat": 51.68667900000001,
      "lng": 5.6590573
    },
    "isOpen": true,
    "environment": "Outdoor",
    "contactless": true,
    "products": [
      "Drinks",
      "Snacks"
    ]
  },
  {
    "id": 8779,
    "title": "Quiosk Brachterbeek",
    "name": "Quiosk V280 - Avia Vollenhoven Maasbracht",
    "city": "Brachterbeek",
    "postcode": "6051 HE",
    "address": "Sint Joosterweg 7",
    "coords": {
      "lat": 51.1381494,
      "lng": 5.8954941
    },
    "isOpen": true,
    "environment": "Outdoor",
    "contactless": true,
    "products": [
      "Drinks",
      "Snacks"
    ]
  },
  {
    "id": 8778,
    "title": "Quiosk Raalte",
    "name": "Quiosk V279 - Tinq Raalte",
    "city": "Raalte",
    "postcode": "8102 RN",
    "address": "Heinoseweg 1",
    "coords": {
      "lat": 52.4035271,
      "lng": 6.262814499999999
    },
    "isOpen": true,
    "environment": "Outdoor",
    "contactless": true,
    "products": [
      "Drinks",
      "Snacks"
    ]
  },
  {
    "id": 8777,
    "title": "Quiosk Hoeven",
    "name": "Quiosk V278 - Tinq Hoeven",
    "city": "Hoeven",
    "postcode": "4741 RP",
    "address": "Sint Bernardusstraat 15 a",
    "coords": {
      "lat": 51.5857997,
      "lng": 4.5749428
    },
    "isOpen": true,
    "environment": "Outdoor",
    "contactless": true,
    "products": [
      "Drinks",
      "Snacks"
    ]
  },
  {
    "id": 8776,
    "title": "Quiosk Winschoten",
    "name": "Quiosk V277 - Leap24 Winschoten",
    "city": "Winschoten",
    "postcode": "9672 BM",
    "address": "Hellingbaan 1",
    "coords": {
      "lat": 53.1438867,
      "lng": 7.0470213
    },
    "isOpen": true,
    "environment": "Outdoor",
    "contactless": true,
    "products": [
      "Drinks",
      "Snacks"
    ]
  },
  {
    "id": 8999,
    "title": "Quiosk Ermelo",
    "name": "Quiosk V276 - Esso Express Ermelo",
    "city": "Ermelo",
    "postcode": "3853 LV",
    "address": "Buitenbrinkweg 83",
    "coords": {
      "lat": 52.3113737,
      "lng": 5.5648642
    },
    "isOpen": true,
    "environment": "Outdoor",
    "contactless": true,
    "products": [
      "Drinks",
      "Snacks"
    ]
  },
  {
    "id": 8774,
    "title": "Quiosk Ruurlo",
    "name": "Quiosk V275 - Argos Ruurlo",
    "city": "Ruurlo",
    "postcode": "7261 ST",
    "address": "De Vente 7",
    "coords": {
      "lat": 52.0774108,
      "lng": 6.458139999999999
    },
    "isOpen": true,
    "environment": "Outdoor",
    "contactless": true,
    "products": [
      "Drinks",
      "Snacks"
    ]
  },
  {
    "id": 8773,
    "title": "Quiosk Noordwijkerhout",
    "name": "Quiosk V274 - Tinq Noordwijkerhout",
    "city": "Noordwijkerhout",
    "postcode": "2211 ZB",
    "address": "Provincialeweg",
    "coords": {
      "lat": 52.2759172,
      "lng": 4.5103666
    },
    "isOpen": true,
    "environment": "Outdoor",
    "contactless": true,
    "products": [
      "Drinks",
      "Snacks"
    ]
  },
  {
    "id": 8404,
    "title": "Quiosk Apeldoorn",
    "name": "Quiosk V273 - Tinq Apeldoorn",
    "city": "Apeldoorn",
    "postcode": "7328 JN",
    "address": "Matenpoort 11",
    "coords": {
      "lat": 52.2048612,
      "lng": 5.984568299999999
    },
    "isOpen": true,
    "environment": "Outdoor",
    "contactless": true,
    "products": [
      "Drinks",
      "Snacks"
    ]
  },
  {
    "id": 8771,
    "title": "Quiosk Roelofarendsveen",
    "name": "Quiosk V272 - Tinq Roelofarendsveen",
    "city": "Roelofarendsveen",
    "postcode": "2371 EX",
    "address": "Alkemadelaan 1",
    "coords": {
      "lat": 52.2038868,
      "lng": 4.6232676
    },
    "isOpen": true,
    "environment": "Outdoor",
    "contactless": true,
    "products": [
      "Drinks",
      "Snacks"
    ]
  },
  {
    "id": 8770,
    "title": "Quiosk s-Gravenzande",
    "name": "Quiosk V271 - Tinq 's-Gravenzande",
    "city": "s-Gravenzande",
    "postcode": "2691 KH",
    "address": "Noordlandseweg 59 a",
    "coords": {
      "lat": 51.9997745,
      "lng": 4.1415442
    },
    "isOpen": true,
    "environment": "Outdoor",
    "contactless": true,
    "products": [
      "Drinks",
      "Snacks"
    ]
  },
  {
    "id": 8769,
    "title": "Quiosk Papendijk",
    "name": "Quiosk V270 - BS Geffen",
    "city": "Papendijk",
    "postcode": "5386 KA",
    "address": "Bedrijvenweg 10",
    "coords": {
      "lat": 51.7368278,
      "lng": 5.474028100000001
    },
    "isOpen": true,
    "environment": "Outdoor",
    "contactless": true,
    "products": [
      "Drinks",
      "Snacks"
    ]
  },
  {
    "id": 8768,
    "title": "Quiosk Boornzwaag",
    "name": "Quiosk V269 - Tinq Bloksloot",
    "city": "Boornzwaag",
    "postcode": "8526 GJ",
    "address": "Rijksweg 40",
    "coords": {
      "lat": 52.9838374,
      "lng": 5.7326783
    },
    "isOpen": true,
    "environment": "Outdoor",
    "contactless": true,
    "products": [
      "Drinks",
      "Snacks"
    ]
  },
  {
    "id": 8767,
    "title": "Quiosk Hoogvliet",
    "name": "Quiosk V268 - Tinq Rotterdam Duifhuisweg",
    "city": "Hoogvliet",
    "postcode": "3191 LC",
    "address": "Duifhuisweg 1",
    "coords": {
      "lat": 51.8578728,
      "lng": 4.3801855
    },
    "isOpen": true,
    "environment": "Outdoor",
    "contactless": true,
    "products": [
      "Drinks",
      "Snacks"
    ]
  },
  {
    "id": 8766,
    "title": "Quiosk Wijk en Aalburg",
    "name": "Quiosk V267 - Tinq Wijk en Aalburg",
    "city": "Wijk en Aalburg",
    "postcode": "4261 RG",
    "address": "Groeneweg 8",
    "coords": {
      "lat": 51.7660674,
      "lng": 5.1034457
    },
    "isOpen": true,
    "environment": "Outdoor",
    "contactless": true,
    "products": [
      "Drinks",
      "Snacks"
    ]
  },
  {
    "id": 8765,
    "title": "Quiosk Waalwijk",
    "name": "Quiosk V266 - Tinq Waalwijk",
    "city": "Waalwijk",
    "postcode": "5145 NJ",
    "address": "Havenweg 25",
    "coords": {
      "lat": 51.6934292,
      "lng": 5.043333899999999
    },
    "isOpen": true,
    "environment": "Outdoor",
    "contactless": true,
    "products": [
      "Drinks",
      "Snacks"
    ]
  },
  {
    "id": 8763,
    "title": "Quiosk Nijverdal",
    "name": "Quiosk V265 - Tinq Nijverdal",
    "city": "Nijverdal",
    "postcode": "7442 CZ",
    "address": "Burgemeester H. Boersingel 15",
    "coords": {
      "lat": 52.355826,
      "lng": 6.505234199999999
    },
    "isOpen": true,
    "environment": "Outdoor",
    "contactless": true,
    "products": [
      "Drinks",
      "Snacks"
    ]
  },
  {
    "id": 8476,
    "title": "Quiosk Drachten",
    "name": "Quiosk V264 - TinQ Drachten",
    "city": "Drachten",
    "postcode": "9201 AW",
    "address": "Loswal 2",
    "coords": {
      "lat": 53.1099242,
      "lng": 6.0798697
    },
    "isOpen": true,
    "environment": "Outdoor",
    "contactless": true,
    "products": [
      "Drinks",
      "Snacks"
    ]
  },
  {
    "id": 8475,
    "title": "Quiosk Hulshorst",
    "name": "Quiosk V263 - Tinq Hulshorst",
    "city": "Hulshorst",
    "postcode": "8077 SV",
    "address": "Schotweg 2",
    "coords": {
      "lat": 52.3708168,
      "lng": 5.7548267
    },
    "isOpen": true,
    "environment": "Outdoor",
    "contactless": true,
    "products": [
      "Drinks",
      "Snacks"
    ]
  },
  {
    "id": 8474,
    "title": "Quiosk Zoetermeer",
    "name": "Quiosk V262 - Argos Zoetermeer",
    "city": "Zoetermeer",
    "postcode": "2725 BL",
    "address": "Kadelaan 2",
    "coords": {
      "lat": 52.0711704,
      "lng": 4.4997102
    },
    "isOpen": true,
    "environment": "Outdoor",
    "contactless": true,
    "products": [
      "Drinks",
      "Snacks"
    ]
  },
  {
    "id": 8473,
    "title": "Quiosk Oud Gastel",
    "name": "Quiosk V261 - Jora D24 Oud Gastel Standerdmolen",
    "city": "Oud Gastel",
    "postcode": "4751 VJ",
    "address": "Standerdmolen 2",
    "coords": {
      "lat": 51.58204920000001,
      "lng": 4.4558995
    },
    "isOpen": true,
    "environment": "Outdoor",
    "contactless": true,
    "products": [
      "Drinks",
      "Snacks"
    ]
  },
  {
    "id": 8472,
    "title": "Quiosk Dordrecht",
    "name": "Quiosk V260 - Argos Dordrecht",
    "city": "Dordrecht",
    "postcode": "3314 AG",
    "address": "Hugo de Grootlaan 93",
    "coords": {
      "lat": 51.8051598,
      "lng": 4.655215399999999
    },
    "isOpen": true,
    "environment": "Outdoor",
    "contactless": true,
    "products": [
      "Drinks",
      "Snacks"
    ]
  },
  {
    "id": 8471,
    "title": "Quiosk Bleiswijk",
    "name": "Quiosk V259 - Argos Bleiswijk",
    "city": "Bleiswijk",
    "postcode": "2665 CA",
    "address": "Overbuurtseweg 26",
    "coords": {
      "lat": 52.018038,
      "lng": 4.5333687
    },
    "isOpen": true,
    "environment": "Outdoor",
    "contactless": true,
    "products": [
      "Drinks",
      "Snacks"
    ]
  },
  {
    "id": 8470,
    "title": "Quiosk Wormerveer",
    "name": "Quiosk V258 - Argos Wormerveer",
    "city": "Wormerveer",
    "postcode": "1521 RA",
    "address": "Samsonweg 1 a",
    "coords": {
      "lat": 52.5035746,
      "lng": 4.783651100000001
    },
    "isOpen": true,
    "environment": "Outdoor",
    "contactless": true,
    "products": [
      "Drinks",
      "Snacks"
    ]
  },
  {
    "id": 8469,
    "title": "Quiosk Monster",
    "name": "Quiosk V257 - Argos Monster",
    "city": "Monster",
    "postcode": "2681 SM",
    "address": "Rijnweg 359",
    "coords": {
      "lat": 52.0328013,
      "lng": 4.1799703
    },
    "isOpen": true,
    "environment": "Outdoor",
    "contactless": true,
    "products": [
      "Drinks",
      "Snacks"
    ]
  },
  {
    "id": 8468,
    "title": "Quiosk Nunspeet",
    "name": "Quiosk V256 - Argos GP Groot Nunspeet",
    "city": "Nunspeet",
    "postcode": "8072 TC",
    "address": "Draaiing 1",
    "coords": {
      "lat": 52.39222179999999,
      "lng": 5.8115798
    },
    "isOpen": true,
    "environment": "Outdoor",
    "contactless": true,
    "products": [
      "Drinks",
      "Snacks"
    ]
  },
  {
    "id": 9144,
    "title": "Quiosk Doorn",
    "name": "Quiosk V255 - Shell Tamoil Doorn",
    "city": "Doorn",
    "postcode": "3941 BZ",
    "address": "Velperengh 2",
    "coords": {
      "lat": 52.03714670000001,
      "lng": 5.3166625
    },
    "isOpen": true,
    "environment": "Outdoor",
    "contactless": true,
    "products": [
      "Drinks",
      "Snacks"
    ]
  },
  {
    "id": 9000,
    "title": "Quiosk Zutphen",
    "name": "Quiosk V254 - Argos Zutphen",
    "city": "Zutphen",
    "postcode": "7207 AB",
    "address": "Den Elterweg 106",
    "coords": {
      "lat": 52.1088903,
      "lng": 6.220000700000001
    },
    "isOpen": true,
    "environment": "Outdoor",
    "contactless": true,
    "products": [
      "Drinks",
      "Snacks"
    ]
  },
  {
    "id": 8464,
    "title": "Quiosk Zwolle",
    "name": "Quiosk V252 - Supertank Zwolle",
    "city": "Zwolle",
    "postcode": "8013 PK",
    "address": "Marconistraat 17",
    "coords": {
      "lat": 52.4970954,
      "lng": 6.1272183
    },
    "isOpen": true,
    "environment": "Outdoor",
    "contactless": true,
    "products": [
      "Drinks",
      "Snacks"
    ]
  },
  {
    "id": 8053,
    "title": "Quiosk Haarlem",
    "name": "Quiosk V250 - Leap24 Haarlem",
    "city": "Haarlem",
    "postcode": "2031 EH",
    "address": "Kuipersweg 1",
    "coords": {
      "lat": 52.400039,
      "lng": 4.659849599999999
    },
    "isOpen": true,
    "environment": "Outdoor",
    "contactless": true,
    "products": [
      "Drinks",
      "Snacks"
    ]
  },
  {
    "id": 8461,
    "title": "Quiosk Lochem",
    "name": "Quiosk V249 - Tinq Lochem",
    "city": "Lochem",
    "postcode": "7241 CW",
    "address": "Kwinkweerd 19 t",
    "coords": {
      "lat": 52.16890739999999,
      "lng": 6.3958566
    },
    "isOpen": true,
    "environment": "Outdoor",
    "contactless": true,
    "products": [
      "Drinks",
      "Snacks"
    ]
  },
  {
    "id": 8460,
    "title": "Quiosk Emmen",
    "name": "Quiosk V248 - Avia Weghorst Emmen",
    "city": "Emmen",
    "postcode": "7825 VJ",
    "address": "Vasco Da Gamastraat 1",
    "coords": {
      "lat": 52.7554449,
      "lng": 6.916103799999999
    },
    "isOpen": true,
    "environment": "Outdoor",
    "contactless": true,
    "products": [
      "Drinks",
      "Snacks"
    ]
  },
  {
    "id": 8459,
    "title": "Quiosk Rotterdam",
    "name": "Quiosk V247 - Avia ABM Rotterdam Tandwielstraat",
    "city": "Rotterdam",
    "postcode": "3083 AV",
    "address": "Tandwielstraat 2",
    "coords": {
      "lat": 51.8862967,
      "lng": 4.4970207
    },
    "isOpen": true,
    "environment": "Outdoor",
    "contactless": true,
    "products": [
      "Drinks",
      "Snacks"
    ]
  },
  {
    "id": 8458,
    "title": "Quiosk Kampen",
    "name": "Quiosk V246 - Tinq Kampen",
    "city": "Kampen",
    "postcode": "8261 LK",
    "address": "IJsseldijk 37",
    "coords": {
      "lat": 52.55229139999999,
      "lng": 5.9232003
    },
    "isOpen": true,
    "environment": "Outdoor",
    "contactless": true,
    "products": [
      "Drinks",
      "Snacks"
    ]
  },
  {
    "id": 8457,
    "title": "Quiosk Goes",
    "name": "Quiosk V245 - Kuzee Goes",
    "city": "Goes",
    "postcode": "4462 HJ",
    "address": "Hudsonweg 20",
    "coords": {
      "lat": 51.4831253,
      "lng": 3.892571899999999
    },
    "isOpen": true,
    "environment": "Outdoor",
    "contactless": true,
    "products": [
      "Drinks",
      "Snacks"
    ]
  },
  {
    "id": 7869,
    "title": "Quiosk Stadskanaal",
    "name": "Quiosk V244 - Wasland Stadskanaal Tingieterstraat",
    "city": "Stadskanaal",
    "postcode": "9502 EX",
    "address": "Tinnegieter 23",
    "coords": {
      "lat": 52.9837087,
      "lng": 6.9798962
    },
    "isOpen": true,
    "environment": "Outdoor",
    "contactless": true,
    "products": [
      "Drinks",
      "Snacks"
    ]
  },
  {
    "id": 9124,
    "title": "Quiosk Schagen",
    "name": "Quiosk V243 - Leap24 Schagen",
    "city": "Schagen",
    "postcode": "1742 PH",
    "address": "De Lus 9 h",
    "coords": {
      "lat": 52.7966007,
      "lng": 4.777211299999999
    },
    "isOpen": true,
    "environment": "Outdoor",
    "contactless": true,
    "products": [
      "Drinks",
      "Snacks"
    ]
  },
  {
    "id": 8061,
    "title": "Quiosk Badhoevedorp",
    "name": "Quiosk V242 - Leap24 Badhoevedorp",
    "city": "Badhoevedorp",
    "postcode": "1171 PL",
    "address": "Schipholweg 275",
    "coords": {
      "lat": 52.32904300000001,
      "lng": 4.7857283
    },
    "isOpen": true,
    "environment": "Outdoor",
    "contactless": true,
    "products": [
      "Drinks",
      "Snacks"
    ]
  },
  {
    "id": 8453,
    "title": "Quiosk Son en Breugel",
    "name": "Quiosk V241 - Tinq Son",
    "city": "Son en Breugel",
    "postcode": "5692 CA",
    "address": "Ekkersrijt 3012",
    "coords": {
      "lat": 51.5036482,
      "lng": 5.491394
    },
    "isOpen": true,
    "environment": "Outdoor",
    "contactless": true,
    "products": [
      "Drinks",
      "Snacks"
    ]
  },
  {
    "id": 8892,
    "title": "Quiosk Roosendaal",
    "name": "Quiosk V240 - Avia Vollenhoven Roosendaal",
    "city": "Roosendaal",
    "postcode": "4706 PL",
    "address": "Neutronweg 2",
    "coords": {
      "lat": 51.5389674,
      "lng": 4.497528099999999
    },
    "isOpen": true,
    "environment": "Outdoor",
    "contactless": true,
    "products": [
      "Drinks",
      "Snacks"
    ]
  },
  {
    "id": 8435,
    "title": "Quiosk Kerkdriel",
    "name": "Quiosk V239 - Avia Vollenhoven Kerkdriel",
    "city": "Kerkdriel",
    "postcode": "5331 CJ",
    "address": "Kerkstraat 116",
    "coords": {
      "lat": 51.7693837,
      "lng": 5.3254114
    },
    "isOpen": true,
    "environment": "Outdoor",
    "contactless": true,
    "products": [
      "Drinks",
      "Snacks"
    ]
  },
  {
    "id": 8434,
    "title": "Quiosk Middelburg",
    "name": "Quiosk V238 - Kuzee Middelburg",
    "city": "Middelburg",
    "postcode": "4332 SC",
    "address": "Heerlijkheidsweg 3",
    "coords": {
      "lat": 51.5037641,
      "lng": 3.6297584
    },
    "isOpen": true,
    "environment": "Outdoor",
    "contactless": true,
    "products": [
      "Drinks",
      "Snacks"
    ]
  },
  {
    "id": 8433,
    "title": "Quiosk Groningen",
    "name": "Quiosk V237 - JP Carwash Groningen",
    "city": "Groningen",
    "postcode": "9744 AH",
    "address": "Zuiderweg 409 A",
    "coords": {
      "lat": 53.2007422,
      "lng": 6.5118119
    },
    "isOpen": true,
    "environment": "Outdoor",
    "contactless": true,
    "products": [
      "Drinks",
      "Snacks"
    ]
  },
  {
    "id": 8432,
    "title": "Quiosk Waalwijk",
    "name": "Quiosk V236 - Avia Vollenhoven Waalwijk",
    "city": "Waalwijk",
    "postcode": "5142 GZ",
    "address": "Noorder Parallelweg 53",
    "coords": {
      "lat": 51.685762,
      "lng": 5.072748
    },
    "isOpen": true,
    "environment": "Outdoor",
    "contactless": true,
    "products": [
      "Drinks",
      "Snacks"
    ]
  },
  {
    "id": 8431,
    "title": "Quiosk Almelo",
    "name": "Quiosk V235 - Avia Weghorst Almelo Bornebroek",
    "city": "Almelo",
    "postcode": "7609 PK",
    "address": "Bornerbroeksestraat 455",
    "coords": {
      "lat": 52.33430329999999,
      "lng": 6.656771
    },
    "isOpen": true,
    "environment": "Outdoor",
    "contactless": true,
    "products": [
      "Drinks",
      "Snacks"
    ]
  },
  {
    "id": 8430,
    "title": "Quiosk Breda",
    "name": "Quiosk V234 - Avia ABM Breda",
    "city": "Breda",
    "postcode": "4815 HA",
    "address": "Belcrumweg 5",
    "coords": {
      "lat": 51.59679269999999,
      "lng": 4.7700116
    },
    "isOpen": true,
    "environment": "Outdoor",
    "contactless": true,
    "products": [
      "Drinks",
      "Snacks"
    ]
  },
  {
    "id": 8465,
    "title": "Quiosk Breda",
    "name": "Quiosk V233 - Tinq Breda Spinveld",
    "city": "Breda",
    "postcode": "5692 CA",
    "address": "Spinveld 74",
    "coords": {
      "lat": 51.59727239999999,
      "lng": 4.7508308
    },
    "isOpen": true,
    "environment": "Outdoor",
    "contactless": true,
    "products": [
      "Drinks",
      "Snacks"
    ]
  },
  {
    "id": 8428,
    "title": "Quiosk Tilburg",
    "name": "Quiosk V232 - Tamoil Tilburg",
    "city": "Tilburg",
    "postcode": "",
    "address": "Elgarstraat 50 683",
    "coords": {
      "lat": 51.590671,
      "lng": 5.0843459
    },
    "isOpen": true,
    "environment": "Outdoor",
    "contactless": true,
    "products": [
      "Drinks",
      "Snacks"
    ]
  },
  {
    "id": 8427,
    "title": "Quiosk Goor",
    "name": "Quiosk V231 - Avia Weghorst Goor",
    "city": "Goor",
    "postcode": "7471 AN",
    "address": "Kerkstraat 125",
    "coords": {
      "lat": 52.23351049999999,
      "lng": 6.576562399999999
    },
    "isOpen": true,
    "environment": "Outdoor",
    "contactless": true,
    "products": [
      "Drinks",
      "Snacks"
    ]
  },
  {
    "id": 8426,
    "title": "Quiosk Venray",
    "name": "Quiosk V230 - Avia Vollenhoven Venray",
    "city": "Venray",
    "postcode": "5801 AG",
    "address": "Langstraat 110 110",
    "coords": {
      "lat": 51.5175638,
      "lng": 5.9686963
    },
    "isOpen": true,
    "environment": "Outdoor",
    "contactless": true,
    "products": [
      "Drinks",
      "Snacks"
    ]
  },
  {
    "id": 8425,
    "title": "Quiosk Bodegraven",
    "name": "Quiosk V229 - Tinq Bodegraven",
    "city": "Bodegraven",
    "postcode": "2411 HK",
    "address": "Goudseweg 131",
    "coords": {
      "lat": 52.0754347,
      "lng": 4.7445062
    },
    "isOpen": true,
    "environment": "Outdoor",
    "contactless": true,
    "products": [
      "Drinks",
      "Snacks"
    ]
  },
  {
    "id": 8424,
    "title": "Quiosk Middelburg",
    "name": "Quiosk V228 - Tinq Middelburg",
    "city": "Middelburg",
    "postcode": "4337 PA",
    "address": "kanaalweg 5",
    "coords": {
      "lat": 51.497857,
      "lng": 3.6254842
    },
    "isOpen": true,
    "environment": "Outdoor",
    "contactless": true,
    "products": [
      "Drinks",
      "Snacks"
    ]
  },
  {
    "id": 7863,
    "title": "Quiosk Ede",
    "name": "Quiosk V227 - Tinq Ede",
    "city": "Ede",
    "postcode": "6716 AE",
    "address": "Galvanistraat 93",
    "coords": {
      "lat": 52.0322598,
      "lng": 5.6226211
    },
    "isOpen": true,
    "environment": "Outdoor",
    "contactless": true,
    "products": [
      "Drinks",
      "Snacks"
    ]
  },
  {
    "id": 8422,
    "title": "Quiosk Rijswijk",
    "name": "Quiosk V226 - Argos GP Groot Rijswijk",
    "city": "Rijswijk",
    "postcode": "2288 GB",
    "address": "Van Gijnstraat 13",
    "coords": {
      "lat": 52.0382174,
      "lng": 4.3310342
    },
    "isOpen": true,
    "environment": "Outdoor",
    "contactless": true,
    "products": [
      "Drinks",
      "Snacks"
    ]
  },
  {
    "id": 8421,
    "title": "Quiosk Ochten",
    "name": "Quiosk V225 - Tinq Ochten",
    "city": "Ochten",
    "postcode": "4051 CE",
    "address": "Cuneraweg 13",
    "coords": {
      "lat": 51.9180246,
      "lng": 5.5682453
    },
    "isOpen": true,
    "environment": "Outdoor",
    "contactless": true,
    "products": [
      "Drinks",
      "Snacks"
    ]
  },
  {
    "id": 8420,
    "title": "Quiosk Raalte",
    "name": "Quiosk V224 - Shell Tinq Raalte",
    "city": "Raalte",
    "postcode": "8102 ER",
    "address": "Brugstraat 55",
    "coords": {
      "lat": 52.3838556,
      "lng": 6.279033699999999
    },
    "isOpen": true,
    "environment": "Outdoor",
    "contactless": true,
    "products": [
      "Drinks",
      "Snacks"
    ]
  },
  {
    "id": 9125,
    "title": "Quiosk Middenmeer",
    "name": "Quiosk V223 - GP Groot Total Middenmeer",
    "city": "Middenmeer",
    "postcode": "1775 PS",
    "address": "Zuiderzeeweg 2 a",
    "coords": {
      "lat": 52.8127201,
      "lng": 4.9906896
    },
    "isOpen": true,
    "environment": "Outdoor",
    "contactless": true,
    "products": [
      "Drinks",
      "Snacks"
    ]
  },
  {
    "id": 8418,
    "title": "Quiosk Stramproy",
    "name": "Quiosk V222 - Avia Vollenhoven Stramproy",
    "city": "Stramproy",
    "postcode": "6039 RA",
    "address": "Amentstraat 2",
    "coords": {
      "lat": 51.1980717,
      "lng": 5.7220067
    },
    "isOpen": true,
    "environment": "Outdoor",
    "contactless": true,
    "products": [
      "Drinks",
      "Snacks"
    ]
  },
  {
    "id": 8412,
    "title": "Quiosk Echt",
    "name": "Quiosk V221 - Avia Vollenhoven Echt",
    "city": "Echt",
    "postcode": "6101 XK",
    "address": "Voltaweg 33 a",
    "coords": {
      "lat": 51.1170913,
      "lng": 5.8847637
    },
    "isOpen": true,
    "environment": "Outdoor",
    "contactless": true,
    "products": [
      "Drinks",
      "Snacks"
    ]
  },
  {
    "id": 8411,
    "title": "Quiosk Nootdorp",
    "name": "Quiosk V220 - Tinq Nootdorp",
    "city": "Nootdorp",
    "postcode": "2631 ND",
    "address": "Kortelandseweg 3",
    "coords": {
      "lat": 52.0452762,
      "lng": 4.386322499999999
    },
    "isOpen": true,
    "environment": "Outdoor",
    "contactless": true,
    "products": [
      "Drinks",
      "Snacks"
    ]
  },
  {
    "id": 8410,
    "title": "Quiosk Hoensbroek",
    "name": "Quiosk V219 - Tinq Hoensbroek",
    "city": "Hoensbroek",
    "postcode": "6431 KS",
    "address": "Nieuwstraat 191",
    "coords": {
      "lat": 50.91884169999999,
      "lng": 5.930494599999999
    },
    "isOpen": true,
    "environment": "Outdoor",
    "contactless": true,
    "products": [
      "Drinks",
      "Snacks"
    ]
  },
  {
    "id": 8409,
    "title": "Quiosk Rotterdam",
    "name": "Quiosk V218 - Tinq Delfgauw",
    "city": "Rotterdam",
    "postcode": "2645 AA",
    "address": "Delftsestraatweg 72",
    "coords": {
      "lat": 52.01095780000001,
      "lng": 4.3988586
    },
    "isOpen": true,
    "environment": "Outdoor",
    "contactless": true,
    "products": [
      "Drinks",
      "Snacks"
    ]
  },
  {
    "id": 8408,
    "title": "Quiosk Boskoop",
    "name": "Quiosk V217 - Shell Tinq Boskoop",
    "city": "Boskoop",
    "postcode": "2771 XH",
    "address": "Alphenseweg 2",
    "coords": {
      "lat": 52.0766429,
      "lng": 4.6621083
    },
    "isOpen": true,
    "environment": "Outdoor",
    "contactless": true,
    "products": [
      "Drinks",
      "Snacks"
    ]
  },
  {
    "id": 8745,
    "title": "Quiosk Sittard",
    "name": "Quiosk V216 - MosaicWorld Sittard",
    "city": "Sittard",
    "postcode": "6131 AV",
    "address": "Bergstraat 295",
    "coords": {
      "lat": 51.0006266,
      "lng": 5.860264799999999
    },
    "isOpen": true,
    "environment": "Outdoor",
    "contactless": true,
    "products": [
      "Drinks",
      "Snacks"
    ]
  },
  {
    "id": 9343,
    "title": "Quiosk Veghel",
    "name": "Quiosk V213 - Tamoil Veghel",
    "city": "Veghel",
    "postcode": "5467 JZ",
    "address": "De Bunders 2",
    "coords": {
      "lat": 51.623408,
      "lng": 5.559292399999999
    },
    "isOpen": true,
    "environment": "Outdoor",
    "contactless": true,
    "products": [
      "Drinks",
      "Snacks"
    ]
  },
  {
    "id": 8095,
    "title": "Quiosk Almere",
    "name": "Quiosk V211 - Supertank Almere",
    "city": "Almere",
    "postcode": "1332 BH",
    "address": "Dukdalfweg 11",
    "coords": {
      "lat": 52.4091578,
      "lng": 5.254756299999999
    },
    "isOpen": true,
    "environment": "Outdoor",
    "contactless": true,
    "products": [
      "Drinks",
      "Snacks"
    ]
  },
  {
    "id": 8098,
    "title": "Quiosk Bunde",
    "name": "Quiosk V210 - Avia Vollenhoven Bunde",
    "city": "Bunde",
    "postcode": "6241 AB",
    "address": "Sportlaan 22",
    "coords": {
      "lat": 50.8936918,
      "lng": 5.7276345
    },
    "isOpen": true,
    "environment": "Outdoor",
    "contactless": true,
    "products": [
      "Drinks",
      "Snacks"
    ]
  },
  {
    "id": 7867,
    "title": "Quiosk Almelo",
    "name": "Quiosk V209 - Avia Weghorst Almelo",
    "city": "Almelo",
    "postcode": "7602 KM",
    "address": "Bedrijvenpark Twente 454",
    "coords": {
      "lat": 52.3811713,
      "lng": 6.6090908
    },
    "isOpen": true,
    "environment": "Outdoor",
    "contactless": true,
    "products": [
      "Drinks",
      "Snacks"
    ]
  },
  {
    "id": 8091,
    "title": "Quiosk Maassluis",
    "name": "Quiosk V208 - Tinq Maassluis",
    "city": "Maassluis",
    "postcode": "3144 GA",
    "address": "Koningshoek 92303",
    "coords": {
      "lat": 51.9296947,
      "lng": 4.2401471
    },
    "isOpen": true,
    "environment": "Outdoor",
    "contactless": true,
    "products": [
      "Drinks",
      "Snacks"
    ]
  },
  {
    "id": 8088,
    "title": "Quiosk Damwâld",
    "name": "Quiosk V204 - Tinq Damwoude",
    "city": "Damwâld",
    "postcode": "",
    "address": "Haadwei 8 599",
    "coords": {
      "lat": 53.29398399999999,
      "lng": 5.9969396
    },
    "isOpen": true,
    "environment": "Outdoor",
    "contactless": true,
    "products": [
      "Drinks",
      "Snacks"
    ]
  },
  {
    "id": 9139,
    "title": "Quiosk Emmeloord",
    "name": "Quiosk V203 - Tinq Emmeloord",
    "city": "Emmeloord",
    "postcode": "8305 AH",
    "address": "Markenesserweg 8",
    "coords": {
      "lat": 52.7087842,
      "lng": 5.8147419
    },
    "isOpen": true,
    "environment": "Outdoor",
    "contactless": true,
    "products": [
      "Drinks",
      "Snacks"
    ]
  },
  {
    "id": 8086,
    "title": "Quiosk Beek en Donk",
    "name": "Quiosk V202 - Avia Vollenhoven Beek en Donk Brugstraat",
    "city": "Beek en Donk",
    "postcode": "5741 GT",
    "address": "Brugstraat 2",
    "coords": {
      "lat": 51.5292237,
      "lng": 5.6432573
    },
    "isOpen": true,
    "environment": "Outdoor",
    "contactless": true,
    "products": [
      "Drinks",
      "Snacks"
    ]
  },
  {
    "id": 8085,
    "title": "Quiosk Tilburg",
    "name": "Quiosk V201 - Avia Vollenhoven Tilburg Noordhoekring",
    "city": "Tilburg",
    "postcode": "5038 GG",
    "address": "Noordhoekring 180",
    "coords": {
      "lat": 51.5583391,
      "lng": 5.0778522
    },
    "isOpen": true,
    "environment": "Outdoor",
    "contactless": true,
    "products": [
      "Drinks",
      "Snacks"
    ]
  },
  {
    "id": 8084,
    "title": "Quiosk Giethoorn",
    "name": "Quiosk V200 - Avia Weghorst Giethoorn",
    "city": "Giethoorn",
    "postcode": "8355 AG",
    "address": "Beulakerweg 137",
    "coords": {
      "lat": 52.7210262,
      "lng": 6.077545199999999
    },
    "isOpen": true,
    "environment": "Outdoor",
    "contactless": true,
    "products": [
      "Drinks",
      "Snacks"
    ]
  },
  {
    "id": 8083,
    "title": "Quiosk 's-Hertogenbosch",
    "name": "Quiosk V198 - Total Express Den Bosch (Tamoil)",
    "city": "'s-Hertogenbosch",
    "postcode": "5232 AA",
    "address": "Bruistensingel 21",
    "coords": {
      "lat": 51.7067541,
      "lng": 5.318791099999999
    },
    "isOpen": true,
    "environment": "Outdoor",
    "contactless": true,
    "products": [
      "Drinks",
      "Snacks"
    ]
  },
  {
    "id": 8081,
    "title": "Quiosk Amersfoort",
    "name": "Quiosk V197 - Tamoil Amersfoort",
    "city": "Amersfoort",
    "postcode": "3812 PR",
    "address": "Havenweg 25a 25 a",
    "coords": {
      "lat": 52.1681551,
      "lng": 5.3663622
    },
    "isOpen": true,
    "environment": "Outdoor",
    "contactless": true,
    "products": [
      "Drinks",
      "Snacks"
    ]
  },
  {
    "id": 8080,
    "title": "Quiosk Nieuwerkerk aan den IJssel",
    "name": "Quiosk V196 - Tinq Nieuwekerk a.d. IJssel",
    "city": "Nieuwerkerk aan den IJssel",
    "postcode": "2913 LB",
    "address": "Hoofdweg-Noord 9 H",
    "coords": {
      "lat": 51.9664814,
      "lng": 4.595299300000001
    },
    "isOpen": true,
    "environment": "Outdoor",
    "contactless": true,
    "products": [
      "Drinks",
      "Snacks"
    ]
  },
  {
    "id": 8078,
    "title": "Quiosk Oud Gastel",
    "name": "Quiosk V194 - Jora D24 Oud Gastel",
    "city": "Oud Gastel",
    "postcode": "4751 GZ",
    "address": "Vaccaweg 2",
    "coords": {
      "lat": 51.5804346,
      "lng": 4.465468899999999
    },
    "isOpen": true,
    "environment": "Outdoor",
    "contactless": true,
    "products": [
      "Drinks",
      "Snacks"
    ]
  },
  {
    "id": 8988,
    "title": "Quiosk Almere",
    "name": "Quiosk V193 - Sato Almere",
    "city": "Almere",
    "postcode": "1317 PZ",
    "address": "Barbeelstraat 14",
    "coords": {
      "lat": 52.3924594,
      "lng": 5.2298506
    },
    "isOpen": true,
    "environment": "Outdoor",
    "contactless": true,
    "products": [
      "Drinks",
      "Snacks"
    ]
  },
  {
    "id": 9294,
    "title": "Quiosk Breda",
    "name": "Quiosk V192 - Melis Carwash Breda",
    "city": "Breda",
    "postcode": "4825 BC",
    "address": "Konijnenberg 57 B",
    "coords": {
      "lat": 51.6080013,
      "lng": 4.7684614
    },
    "isOpen": true,
    "environment": "Outdoor",
    "contactless": true,
    "products": [
      "Drinks",
      "Snacks"
    ]
  },
  {
    "id": 8982,
    "title": "Quiosk Ommen",
    "name": "Quiosk V191 - TinQ Ommen",
    "city": "Ommen",
    "postcode": "7731 HL",
    "address": "Veldkampweg 29",
    "coords": {
      "lat": 52.52922,
      "lng": 6.4268784
    },
    "isOpen": true,
    "environment": "Outdoor",
    "contactless": true,
    "products": [
      "Drinks",
      "Snacks"
    ]
  },
  {
    "id": 8071,
    "title": "Quiosk Hank",
    "name": "Quiosk V187 - Tinq Hank",
    "city": "Hank",
    "postcode": "4273 XD",
    "address": "Jachtsloot 6",
    "coords": {
      "lat": 51.73571889999999,
      "lng": 4.9053337
    },
    "isOpen": true,
    "environment": "Outdoor",
    "contactless": true,
    "products": [
      "Drinks",
      "Snacks"
    ]
  },
  {
    "id": 8070,
    "title": "Quiosk Oosterhout",
    "name": "Quiosk V186 - Basic Wash Oosterhout + doekjes machine",
    "city": "Oosterhout",
    "postcode": "4905 BJ",
    "address": "Kanaalstraat 22",
    "coords": {
      "lat": 51.6483417,
      "lng": 4.850575699999999
    },
    "isOpen": true,
    "environment": "Outdoor",
    "contactless": true,
    "products": [
      "Drinks",
      "Snacks"
    ]
  },
  {
    "id": 8744,
    "title": "Quiosk Purmerend",
    "name": "Quiosk V185 - Tinq Purmerend",
    "city": "Purmerend",
    "postcode": "1442 LB",
    "address": "Van IJsendijkstraat 395",
    "coords": {
      "lat": 52.516872,
      "lng": 4.9798128
    },
    "isOpen": true,
    "environment": "Outdoor",
    "contactless": true,
    "products": [
      "Drinks",
      "Snacks"
    ]
  },
  {
    "id": 8068,
    "title": "Quiosk Kampen",
    "name": "Quiosk V184 - Tinq Kampen",
    "city": "Kampen",
    "postcode": "8263 AJ",
    "address": "Ambachtsstraat 3 a",
    "coords": {
      "lat": 52.562095,
      "lng": 5.890803
    },
    "isOpen": true,
    "environment": "Outdoor",
    "contactless": true,
    "products": [
      "Drinks",
      "Snacks"
    ]
  },
  {
    "id": 8067,
    "title": "Quiosk Opsterland",
    "name": "Quiosk V183 - Avia Weghorst Drachten",
    "city": "Opsterland",
    "postcode": "9207 HB",
    "address": "Curielaan 1",
    "coords": {
      "lat": 53.0961636,
      "lng": 6.1351096
    },
    "isOpen": true,
    "environment": "Outdoor",
    "contactless": true,
    "products": [
      "Drinks",
      "Snacks"
    ]
  },
  {
    "id": 8066,
    "title": "Quiosk Meppel",
    "name": "Quiosk V182 - Tinq Meppel",
    "city": "Meppel",
    "postcode": "7943 KA",
    "address": "Hoogeveenseweg 44",
    "coords": {
      "lat": 52.6900808,
      "lng": 6.224741799999999
    },
    "isOpen": true,
    "environment": "Outdoor",
    "contactless": true,
    "products": [
      "Drinks",
      "Snacks"
    ]
  },
  {
    "id": 8691,
    "title": "Quiosk Den Haag",
    "name": "Quiosk V181 - Argos Den Haag",
    "city": "Den Haag",
    "postcode": "2495 AH",
    "address": "Jan Thijssenweg 14 b",
    "coords": {
      "lat": 52.05577659999999,
      "lng": 4.3475903
    },
    "isOpen": true,
    "environment": "Outdoor",
    "contactless": true,
    "products": [
      "Drinks",
      "Snacks"
    ]
  },
  {
    "id": 8064,
    "title": "Quiosk Zuidbroek",
    "name": "Quiosk V180 - Avia Weghorst Zuidbroek",
    "city": "Zuidbroek",
    "postcode": "9636 HT",
    "address": "Europaweg 9",
    "coords": {
      "lat": 53.16733989999999,
      "lng": 6.8658362
    },
    "isOpen": true,
    "environment": "Outdoor",
    "contactless": true,
    "products": [
      "Drinks",
      "Snacks"
    ]
  },
  {
    "id": 8063,
    "title": "Quiosk Leeuwarden",
    "name": "Quiosk V179 - Leap24 Leeuwarden",
    "city": "Leeuwarden",
    "postcode": "8912 AD",
    "address": "Ampèrestraat 14",
    "coords": {
      "lat": 53.1951817,
      "lng": 5.773891100000001
    },
    "isOpen": true,
    "environment": "Outdoor",
    "contactless": true,
    "products": [
      "Drinks",
      "Snacks"
    ]
  },
  {
    "id": 7852,
    "title": "Quiosk Apeldoorn",
    "name": "Quiosk V177 - Argos Apeldoorn",
    "city": "Apeldoorn",
    "postcode": "7317 AS",
    "address": "Anklaarseweg 121 c",
    "coords": {
      "lat": 52.2353605,
      "lng": 5.974813
    },
    "isOpen": true,
    "environment": "Outdoor",
    "contactless": true,
    "products": [
      "Drinks",
      "Snacks"
    ]
  },
  {
    "id": 9173,
    "title": "Quiosk Uithoorn",
    "name": "Quiosk V176 - Esso Uithoorn",
    "city": "Uithoorn",
    "postcode": "1421 LC",
    "address": "Kon. Máximalaan 101",
    "coords": {
      "lat": 52.2449403,
      "lng": 4.809806
    },
    "isOpen": true,
    "environment": "Outdoor",
    "contactless": true,
    "products": [
      "Drinks",
      "Snacks"
    ]
  },
  {
    "id": 8059,
    "title": "Quiosk Groningen",
    "name": "Quiosk V175 - Tamoil Groningen Peizerweg",
    "city": "Groningen",
    "postcode": "9727 AH",
    "address": "Peizerweg 97",
    "coords": {
      "lat": 53.2084716,
      "lng": 6.539043299999999
    },
    "isOpen": true,
    "environment": "Outdoor",
    "contactless": true,
    "products": [
      "Drinks",
      "Snacks"
    ]
  },
  {
    "id": 8058,
    "title": "Quiosk Eindhoven",
    "name": "Quiosk V174 - Avia Vollenhoven Eindhoven",
    "city": "Eindhoven",
    "postcode": "5652 BA",
    "address": "Rooijakkersstraat 5 A",
    "coords": {
      "lat": 51.429619,
      "lng": 5.4409942
    },
    "isOpen": true,
    "environment": "Outdoor",
    "contactless": true,
    "products": [
      "Drinks",
      "Snacks"
    ]
  },
  {
    "id": 9143,
    "title": "Quiosk De Rijp",
    "name": "Quiosk V173L - Tamoil De Rijp",
    "city": "De Rijp",
    "postcode": "1483 GA",
    "address": "De Volger 35 B",
    "coords": {
      "lat": 52.5489618,
      "lng": 4.8447998
    },
    "isOpen": true,
    "environment": "Outdoor",
    "contactless": true,
    "products": [
      "Drinks",
      "Snacks"
    ]
  },
  {
    "id": 8056,
    "title": "Quiosk Roosendaal",
    "name": "Quiosk V172 - Tinq Roosendaal",
    "city": "Roosendaal",
    "postcode": "4704 RM",
    "address": "Stepvelden 23",
    "coords": {
      "lat": 51.55410320000001,
      "lng": 4.4632269
    },
    "isOpen": true,
    "environment": "Outdoor",
    "contactless": true,
    "products": [
      "Drinks",
      "Snacks"
    ]
  },
  {
    "id": 8055,
    "title": "Quiosk Nuth",
    "name": "Quiosk V171 - Tinq Nuth",
    "city": "Nuth",
    "postcode": "6361 EB",
    "address": "Valkenburgerweg 81",
    "coords": {
      "lat": 50.9116541,
      "lng": 5.8738729
    },
    "isOpen": true,
    "environment": "Outdoor",
    "contactless": true,
    "products": [
      "Drinks",
      "Snacks"
    ]
  },
  {
    "id": 8054,
    "title": "Quiosk Schinveld",
    "name": "Quiosk V170 - Lukoil Schinveld",
    "city": "Schinveld",
    "postcode": "6451 GG",
    "address": "Echterbaan 1",
    "coords": {
      "lat": 50.9644026,
      "lng": 5.9724193
    },
    "isOpen": true,
    "environment": "Outdoor",
    "contactless": true,
    "products": [
      "Drinks",
      "Snacks"
    ]
  },
  {
    "id": 9123,
    "title": "Quiosk Schagen",
    "name": "Quiosk V169 - Supertank Schagen",
    "city": "Schagen",
    "postcode": "1742 PD",
    "address": "De Fok 4",
    "coords": {
      "lat": 52.79074,
      "lng": 4.7829862
    },
    "isOpen": true,
    "environment": "Outdoor",
    "contactless": true,
    "products": [
      "Drinks",
      "Snacks"
    ]
  },
  {
    "id": 8052,
    "title": "Quiosk Breda",
    "name": "Quiosk V168 - Avia Vollenhoven Breda",
    "city": "Breda",
    "postcode": "4825 AT",
    "address": "Regenbeemd 18",
    "coords": {
      "lat": 51.6166278,
      "lng": 4.7675071
    },
    "isOpen": true,
    "environment": "Outdoor",
    "contactless": true,
    "products": [
      "Drinks",
      "Snacks"
    ]
  },
  {
    "id": 9490,
    "title": "Quiosk Urk",
    "name": "Quiosk V167 - Tinq Urk",
    "city": "Urk",
    "postcode": "8321 XB",
    "address": "Pyramideweg 2",
    "coords": {
      "lat": 52.6610697,
      "lng": 5.603515199999999
    },
    "isOpen": true,
    "environment": "Outdoor",
    "contactless": true,
    "products": [
      "Drinks",
      "Snacks"
    ]
  },
  {
    "id": 8987,
    "title": "Quiosk Rotterdam",
    "name": "Quiosk V166 - Avia ABM Rotterdam Walenburghof",
    "city": "Rotterdam",
    "postcode": "3033 HK",
    "address": "Walenburghof 17",
    "coords": {
      "lat": 51.9253132,
      "lng": 4.4633647
    },
    "isOpen": true,
    "environment": "Outdoor",
    "contactless": true,
    "products": [
      "Drinks",
      "Snacks"
    ]
  },
  {
    "id": 7871,
    "title": "Quiosk Baexem",
    "name": "Quiosk V164 - Lukoil Baexem",
    "city": "Baexem",
    "postcode": "6095 BR",
    "address": "Stationstraat 17 A",
    "coords": {
      "lat": 51.2319232,
      "lng": 5.8816714
    },
    "isOpen": true,
    "environment": "Outdoor",
    "contactless": true,
    "products": [
      "Drinks",
      "Snacks"
    ]
  },
  {
    "id": 7870,
    "title": "Quiosk Tilburg",
    "name": "Quiosk V163 - Avia Vollenhoven Tilburg Geminiweg",
    "city": "Tilburg",
    "postcode": "5015 BP",
    "address": "Geminiweg 19",
    "coords": {
      "lat": 51.571088,
      "lng": 5.1105058
    },
    "isOpen": true,
    "environment": "Outdoor",
    "contactless": true,
    "products": [
      "Drinks",
      "Snacks"
    ]
  },
  {
    "id": 8858,
    "title": "Quiosk Bolsward",
    "name": "Quiosk V162 - Tinq Bolsward",
    "city": "Bolsward",
    "postcode": "8701 XA",
    "address": "Snekerstraat 9 a",
    "coords": {
      "lat": 53.0615688,
      "lng": 5.5293967
    },
    "isOpen": true,
    "environment": "Outdoor",
    "contactless": true,
    "products": [
      "Drinks",
      "Snacks"
    ]
  },
  {
    "id": 7868,
    "title": "Quiosk Epe",
    "name": "Quiosk V161 - Snel Tank Epe",
    "city": "Epe",
    "postcode": "8161 TC",
    "address": "Padland 1 A",
    "coords": {
      "lat": 52.3444574,
      "lng": 6.0004403
    },
    "isOpen": true,
    "environment": "Outdoor",
    "contactless": true,
    "products": [
      "Drinks",
      "Snacks"
    ]
  },
  {
    "id": 8991,
    "title": "Quiosk Zwaagdijk",
    "name": "Quiosk V160 - Tamoil Express Zwaagdijk",
    "city": "Zwaagdijk",
    "postcode": "1681 NM",
    "address": "Marktweg 12",
    "coords": {
      "lat": 52.7032537,
      "lng": 5.152667699999999
    },
    "isOpen": true,
    "environment": "Outdoor",
    "contactless": true,
    "products": [
      "Drinks",
      "Snacks"
    ]
  },
  {
    "id": 7866,
    "title": "Quiosk Balkbrug",
    "name": "Quiosk V159L - Snel Tank Balkbrug",
    "city": "Balkbrug",
    "postcode": "7707 AP",
    "address": "Coevorderweg 1",
    "coords": {
      "lat": 52.6011172,
      "lng": 6.3964442
    },
    "isOpen": true,
    "environment": "Outdoor",
    "contactless": true,
    "products": [
      "Drinks",
      "Snacks"
    ]
  },
  {
    "id": 7865,
    "title": "Quiosk Oegstgeest",
    "name": "Quiosk V158 - Tamoil Oegstgeest",
    "city": "Oegstgeest",
    "postcode": "2343 HK",
    "address": "De Boeg 4 H",
    "coords": {
      "lat": 52.1981443,
      "lng": 4.4766282
    },
    "isOpen": true,
    "environment": "Outdoor",
    "contactless": true,
    "products": [
      "Drinks",
      "Snacks"
    ]
  },
  {
    "id": 7864,
    "title": "Quiosk Weesp",
    "name": "Quiosk V157 - Smit Autowas Weesp",
    "city": "Weesp",
    "postcode": "1382 JL",
    "address": "Hogeweyselaan 179 A",
    "coords": {
      "lat": 52.3151194,
      "lng": 5.0263111
    },
    "isOpen": true,
    "environment": "Outdoor",
    "contactless": true,
    "products": [
      "Drinks",
      "Snacks"
    ]
  },
  {
    "id": 8407,
    "title": "Quiosk Nieuwstadt",
    "name": "Quiosk V156 - Avia Vollenhoven Nieuwstadt",
    "city": "Nieuwstadt",
    "postcode": "6118 CK",
    "address": "Gouverneur Houbenstraat 1 a",
    "coords": {
      "lat": 51.0346948,
      "lng": 5.8625875
    },
    "isOpen": true,
    "environment": "Outdoor",
    "contactless": true,
    "products": [
      "Drinks",
      "Snacks"
    ]
  },
  {
    "id": 7862,
    "title": "Quiosk Tilburg",
    "name": "Quiosk V155 - Avia Vollenhoven Tilburg Emma Goldmanweg",
    "city": "Tilburg",
    "postcode": "5032 MN",
    "address": "Emma Goldmanweg 8 B",
    "coords": {
      "lat": 51.5374857,
      "lng": 5.0409945
    },
    "isOpen": true,
    "environment": "Outdoor",
    "contactless": true,
    "products": [
      "Drinks",
      "Snacks"
    ]
  },
  {
    "id": 7873,
    "title": "Quiosk Rijssen",
    "name": "Quiosk V154L - Snel Tank Rijssen",
    "city": "Rijssen",
    "postcode": "7463 PG",
    "address": "Butaanstraat 8",
    "coords": {
      "lat": 52.3174018,
      "lng": 6.5017801
    },
    "isOpen": true,
    "environment": "Outdoor",
    "contactless": true,
    "products": [
      "Drinks",
      "Snacks"
    ]
  },
  {
    "id": 7861,
    "title": "Quiosk Vriezenveen",
    "name": "Quiosk V153 - Esso Vriezenveen",
    "city": "Vriezenveen",
    "postcode": "7671 SV",
    "address": "De Zuivering 46",
    "coords": {
      "lat": 52.4044463,
      "lng": 6.635642100000001
    },
    "isOpen": true,
    "environment": "Outdoor",
    "contactless": true,
    "products": [
      "Drinks",
      "Snacks"
    ]
  },
  {
    "id": 7860,
    "title": "Quiosk Heerlen",
    "name": "Quiosk V152 - Tamoil Heerlen",
    "city": "Heerlen",
    "postcode": "6413 VA",
    "address": "Wickraderweg 201",
    "coords": {
      "lat": 50.9026501,
      "lng": 5.9665536
    },
    "isOpen": true,
    "environment": "Outdoor",
    "contactless": true,
    "products": [
      "Drinks",
      "Snacks"
    ]
  },
  {
    "id": 7859,
    "title": "Quiosk Almelo",
    "name": "Quiosk V151 - Avia Weghorst Almelo Plesmanweg",
    "city": "Almelo",
    "postcode": "7602 PE",
    "address": "Plesmanweg 16",
    "coords": {
      "lat": 52.371376,
      "lng": 6.6410354
    },
    "isOpen": true,
    "environment": "Outdoor",
    "contactless": true,
    "products": [
      "Drinks",
      "Snacks"
    ]
  },
  {
    "id": 7857,
    "title": "Quiosk Nistelrode",
    "name": "Quiosk V149 - Avia Vollenhoven Nistelrode",
    "city": "Nistelrode",
    "postcode": "5388 GH",
    "address": "Maxend 20",
    "coords": {
      "lat": 51.69828039999999,
      "lng": 5.560156699999999
    },
    "isOpen": true,
    "environment": "Outdoor",
    "contactless": true,
    "products": [
      "Drinks",
      "Snacks"
    ]
  },
  {
    "id": 7855,
    "title": "Quiosk Heerde",
    "name": "Quiosk V147 - Snel Tank Heerde",
    "city": "Heerde",
    "postcode": "8181 PD",
    "address": "Zwarteweg 2",
    "coords": {
      "lat": 52.3727296,
      "lng": 6.0181393
    },
    "isOpen": true,
    "environment": "Outdoor",
    "contactless": true,
    "products": [
      "Drinks",
      "Snacks"
    ]
  },
  {
    "id": 7853,
    "title": "Quiosk Deurne",
    "name": "Quiosk V145L - Deurne Box-it",
    "city": "Deurne",
    "postcode": "5753 DA",
    "address": "Hendrik Mesdagstraat 8",
    "coords": {
      "lat": 51.4516415,
      "lng": 5.795040699999999
    },
    "isOpen": true,
    "environment": "Outdoor",
    "contactless": true,
    "products": [
      "Drinks",
      "Snacks"
    ]
  },
  {
    "id": 8062,
    "title": "Quiosk Groningen",
    "name": "Quiosk V144 - Tinq Groningen Wadwerd",
    "city": "Groningen",
    "postcode": "9746 DC",
    "address": "Wadwerd 3",
    "coords": {
      "lat": 53.2370905,
      "lng": 6.5192383
    },
    "isOpen": true,
    "environment": "Outdoor",
    "contactless": true,
    "products": [
      "Drinks",
      "Snacks"
    ]
  },
  {
    "id": 7851,
    "title": "Quiosk Groningen",
    "name": "Quiosk V143 - Tamoil Groningen Popdijkemaweg",
    "city": "Groningen",
    "postcode": "9731 BA",
    "address": "Pop Dijkemaweg 31 A",
    "coords": {
      "lat": 53.2271951,
      "lng": 6.5950871
    },
    "isOpen": true,
    "environment": "Outdoor",
    "contactless": true,
    "products": [
      "Drinks",
      "Snacks"
    ]
  },
  {
    "id": 7849,
    "title": "Quiosk Dronryp",
    "name": "Quiosk V141 - Tinq Dronryp",
    "city": "Dronryp",
    "postcode": "9035 EX",
    "address": "Strjitwei 3",
    "coords": {
      "lat": 53.2003766,
      "lng": 5.6495123
    },
    "isOpen": true,
    "environment": "Outdoor",
    "contactless": true,
    "products": [
      "Drinks",
      "Snacks"
    ]
  },
  {
    "id": 9002,
    "title": "Quiosk Hengelo",
    "name": "Quiosk V140 - TinQ Hengelo",
    "city": "Hengelo",
    "postcode": "7255 KW",
    "address": "Rondweg 10",
    "coords": {
      "lat": 52.0517746,
      "lng": 6.3048762
    },
    "isOpen": true,
    "environment": "Outdoor",
    "contactless": true,
    "products": [
      "Drinks",
      "Snacks"
    ]
  },
  {
    "id": 7847,
    "title": "Quiosk Stadskanaal",
    "name": "Quiosk V139 - Wasland Stadskanaal Poststraat",
    "city": "Stadskanaal",
    "postcode": "9501 ER",
    "address": "Poststraat 21",
    "coords": {
      "lat": 52.9929858,
      "lng": 6.9440865
    },
    "isOpen": true,
    "environment": "Outdoor",
    "contactless": true,
    "products": [
      "Drinks",
      "Snacks"
    ]
  },
  {
    "id": 7846,
    "title": "Quiosk Wezep",
    "name": "Quiosk V138 - Tinq Wezep",
    "city": "Wezep",
    "postcode": "",
    "address": "Zuiderzeestraatweg 443 383",
    "coords": {
      "lat": 52.47046599999999,
      "lng": 5.965259700000001
    },
    "isOpen": true,
    "environment": "Outdoor",
    "contactless": true,
    "products": [
      "Drinks",
      "Snacks"
    ]
  },
  {
    "id": 7845,
    "title": "Quiosk Maastricht",
    "name": "Quiosk V137 - Tamoil Maastricht",
    "city": "Maastricht",
    "postcode": "6217 JZ",
    "address": "Via Regia 170",
    "coords": {
      "lat": 50.8537141,
      "lng": 5.666504
    },
    "isOpen": true,
    "environment": "Outdoor",
    "contactless": true,
    "products": [
      "Drinks",
      "Snacks"
    ]
  },
  {
    "id": 7843,
    "title": "Quiosk Tilburg",
    "name": "Quiosk V136 - Avia Vollenhoven Tilburg Spoorlaan",
    "city": "Tilburg",
    "postcode": "5017 JR",
    "address": "Spoorlaan 3",
    "coords": {
      "lat": 51.5596462,
      "lng": 5.094275300000001
    },
    "isOpen": true,
    "environment": "Outdoor",
    "contactless": true,
    "products": [
      "Drinks",
      "Snacks"
    ]
  },
  {
    "id": 7842,
    "title": "Quiosk Heesch",
    "name": "Quiosk V135 - Let's Wash Heesch",
    "city": "Heesch",
    "postcode": "5384 VT",
    "address": "Cereslaan 22",
    "coords": {
      "lat": 51.7354329,
      "lng": 5.5117866
    },
    "isOpen": true,
    "environment": "Outdoor",
    "contactless": true,
    "products": [
      "Drinks",
      "Snacks"
    ]
  },
  {
    "id": 7839,
    "title": "Quiosk Venlo",
    "name": "Quiosk V132 - Avia Vollenhoven Venlo",
    "city": "Venlo",
    "postcode": "5928 RH",
    "address": "Venrayseweg 188",
    "coords": {
      "lat": 51.401751,
      "lng": 6.1319244
    },
    "isOpen": true,
    "environment": "Outdoor",
    "contactless": true,
    "products": [
      "Drinks",
      "Snacks"
    ]
  },
  {
    "id": 7838,
    "title": "Quiosk Hoogezand",
    "name": "Quiosk V131 - Tinq Hoogezand",
    "city": "Hoogezand",
    "postcode": "9601 EN",
    "address": "Hoofdstraat 238",
    "coords": {
      "lat": 53.1629351,
      "lng": 6.7713253
    },
    "isOpen": true,
    "environment": "Outdoor",
    "contactless": true,
    "products": [
      "Drinks",
      "Snacks"
    ]
  },
  {
    "id": 7837,
    "title": "Quiosk Bennekom",
    "name": "Quiosk V130 - Carwash Bennekom",
    "city": "Bennekom",
    "postcode": "6721 RX",
    "address": "Kaardebol 10",
    "coords": {
      "lat": 52.0017518,
      "lng": 5.659634
    },
    "isOpen": true,
    "environment": "Outdoor",
    "contactless": true,
    "products": [
      "Drinks",
      "Snacks"
    ]
  },
  {
    "id": 7844,
    "title": "Quiosk Roden",
    "name": "Quiosk V129 - Tamoil Roden",
    "city": "Roden",
    "postcode": "9301 ZW",
    "address": "Westeresch 15",
    "coords": {
      "lat": 53.14845810000001,
      "lng": 6.429637
    },
    "isOpen": true,
    "environment": "Outdoor",
    "contactless": true,
    "products": [
      "Drinks",
      "Snacks"
    ]
  },
  {
    "id": 7835,
    "title": "Quiosk Meppel",
    "name": "Quiosk V128 - Supertank Rogat",
    "city": "Meppel",
    "postcode": "7949 AJ",
    "address": "Industrieweg 4",
    "coords": {
      "lat": 52.69392029999999,
      "lng": 6.1812792
    },
    "isOpen": true,
    "environment": "Outdoor",
    "contactless": true,
    "products": [
      "Drinks",
      "Snacks"
    ]
  },
  {
    "id": 8692,
    "title": "Quiosk Groningen",
    "name": "Quiosk V127 - Argos GP Groot Groningen",
    "city": "Groningen",
    "postcode": "9723 AW",
    "address": "Bornholmstraat 99",
    "coords": {
      "lat": 53.2194467,
      "lng": 6.5923267
    },
    "isOpen": true,
    "environment": "Outdoor",
    "contactless": true,
    "products": [
      "Drinks",
      "Snacks"
    ]
  },
  {
    "id": 7832,
    "title": "Quiosk Wanssum",
    "name": "Quiosk V125 - Avia Vollenhoven Wanssum",
    "city": "Wanssum",
    "postcode": "5861 CW",
    "address": "Geijsterseweg 17",
    "coords": {
      "lat": 51.5404565,
      "lng": 6.071836900000001
    },
    "isOpen": true,
    "environment": "Outdoor",
    "contactless": true,
    "products": [
      "Drinks",
      "Snacks"
    ]
  },
  {
    "id": 7831,
    "title": "Quiosk Meerssen",
    "name": "Quiosk V124 - Avia Vollenhoven Meerssen",
    "city": "Meerssen",
    "postcode": "6231 RB",
    "address": "Kruisdonk 3",
    "coords": {
      "lat": 50.876199,
      "lng": 5.7347778
    },
    "isOpen": true,
    "environment": "Outdoor",
    "contactless": true,
    "products": [
      "Drinks",
      "Snacks"
    ]
  },
  {
    "id": 7830,
    "title": "Quiosk Heemskerk",
    "name": "Quiosk V123 - Tinq Heemskerk",
    "city": "Heemskerk",
    "postcode": "1968 LM",
    "address": "Rijksstraatweg 170",
    "coords": {
      "lat": 52.52758979999999,
      "lng": 4.6515507
    },
    "isOpen": true,
    "environment": "Outdoor",
    "contactless": true,
    "products": [
      "Drinks",
      "Snacks"
    ]
  },
  {
    "id": 7829,
    "title": "Quiosk Delft",
    "name": "Quiosk V122 - Carwash Delft",
    "city": "Delft",
    "postcode": "2623 EW",
    "address": "Tanthofdreef 5",
    "coords": {
      "lat": 51.9878783,
      "lng": 4.3658226
    },
    "isOpen": true,
    "environment": "Outdoor",
    "contactless": true,
    "products": [
      "Drinks",
      "Snacks"
    ]
  },
  {
    "id": 7828,
    "title": "Quiosk Heerlen",
    "name": "Quiosk V121 - Lukoil Heerlen",
    "city": "Heerlen",
    "postcode": "6422 PG",
    "address": "Euregioweg 1",
    "coords": {
      "lat": 50.8585051,
      "lng": 6.0012355
    },
    "isOpen": true,
    "environment": "Outdoor",
    "contactless": true,
    "products": [
      "Drinks",
      "Snacks"
    ]
  },
  {
    "id": 7827,
    "title": "Quiosk Heeze",
    "name": "Quiosk V120 - Tamoil Heeze",
    "city": "Heeze",
    "postcode": "5591 JD",
    "address": "Leenderweg 5",
    "coords": {
      "lat": 51.37386799999999,
      "lng": 5.576068999999999
    },
    "isOpen": true,
    "environment": "Outdoor",
    "contactless": true,
    "products": [
      "Drinks",
      "Snacks"
    ]
  },
  {
    "id": 9054,
    "title": "Quiosk Gilze",
    "name": "Quiosk V119 - Savona Gilze",
    "city": "Gilze",
    "postcode": "5126 TB",
    "address": "Nerhoven 38",
    "coords": {
      "lat": 51.5543746,
      "lng": 4.9524396
    },
    "isOpen": true,
    "environment": "Outdoor",
    "contactless": true,
    "products": [
      "Drinks",
      "Snacks"
    ]
  },
  {
    "id": 7825,
    "title": "Quiosk Kerkrade",
    "name": "Quiosk V118 - Lukoil Kerkrade",
    "city": "Kerkrade",
    "postcode": "6466 NG",
    "address": "Wiebachstraat 5",
    "coords": {
      "lat": 50.8507121,
      "lng": 6.0086444
    },
    "isOpen": true,
    "environment": "Outdoor",
    "contactless": true,
    "products": [
      "Drinks",
      "Snacks"
    ]
  },
  {
    "id": 7824,
    "title": "Quiosk Geleen",
    "name": "Quiosk V117 - Leap24 Geleen",
    "city": "Geleen",
    "postcode": "6163 AH",
    "address": "Industrieweg 2",
    "coords": {
      "lat": 50.9814023,
      "lng": 5.8265502
    },
    "isOpen": true,
    "environment": "Outdoor",
    "contactless": true,
    "products": [
      "Drinks",
      "Snacks"
    ]
  },
  {
    "id": 7822,
    "title": "Quiosk Roelofarendsveen",
    "name": "Quiosk V115 - Tinq Roelofarendsveen",
    "city": "Roelofarendsveen",
    "postcode": "2371 TV",
    "address": "Veenderveld 8 D",
    "coords": {
      "lat": 52.1980002,
      "lng": 4.6145397
    },
    "isOpen": true,
    "environment": "Outdoor",
    "contactless": true,
    "products": [
      "Drinks",
      "Snacks"
    ]
  },
  {
    "id": 6571,
    "title": "Quiosk Leeuwarden",
    "name": "Quiosk Tamoil M0426 - Leeuwarden",
    "city": "Leeuwarden",
    "postcode": "8912 AH",
    "address": "Zwettestraat 12",
    "coords": {
      "lat": 53.1956019,
      "lng": 5.7692043
    },
    "isOpen": true,
    "environment": "Outdoor",
    "contactless": true,
    "products": [
      "Drinks",
      "Snacks"
    ]
  },
  {
    "id": 7592,
    "title": "Quiosk Zwijndrecht",
    "name": "Quiosk M111 - Lukoil Zwijndrecht",
    "city": "Zwijndrecht",
    "postcode": "3334 KA",
    "address": "Fruiteniersstraat 19",
    "coords": {
      "lat": 51.8118643,
      "lng": 4.5988846
    },
    "isOpen": true,
    "environment": "Outdoor",
    "contactless": true,
    "products": [
      "Drinks",
      "Snacks"
    ]
  },
  {
    "id": 7589,
    "title": "Quiosk Sassenheim",
    "name": "Quiosk M110 - Falcon Sassenheim",
    "city": "Sassenheim",
    "postcode": "2171 AE",
    "address": "Stationslaan 5",
    "coords": {
      "lat": 52.2142744,
      "lng": 4.5124676
    },
    "isOpen": true,
    "environment": "Outdoor",
    "contactless": true,
    "products": [
      "Drinks",
      "Snacks"
    ]
  },
  {
    "id": 7447,
    "title": "Quiosk Rosmalen",
    "name": "Quiosk M108 - Avia Vollenhoven Rosmalen",
    "city": "Rosmalen",
    "postcode": "5248 NV",
    "address": "Kloosterstraat 1",
    "coords": {
      "lat": 51.7007401,
      "lng": 5.362500199999999
    },
    "isOpen": true,
    "environment": "Outdoor",
    "contactless": true,
    "products": [
      "Drinks",
      "Snacks"
    ]
  },
  {
    "id": 9342,
    "title": "Quiosk Lelystad",
    "name": "Quiosk M105 - Tinq Lelystad",
    "city": "Lelystad",
    "postcode": "8223 EE",
    "address": "Wigstraat 9",
    "coords": {
      "lat": 52.52216379999999,
      "lng": 5.4942085
    },
    "isOpen": true,
    "environment": "Outdoor",
    "contactless": true,
    "products": [
      "Drinks",
      "Snacks"
    ]
  },
  {
    "id": 9053,
    "title": "Quiosk Helmond",
    "name": "Quiosk M101 - Shell Helmond",
    "city": "Helmond",
    "postcode": "5701 CG",
    "address": "Deurnseweg 136",
    "coords": {
      "lat": 51.4757956,
      "lng": 5.674282799999999
    },
    "isOpen": true,
    "environment": "Outdoor",
    "contactless": true,
    "products": [
      "Drinks",
      "Snacks"
    ]
  },
  {
    "id": 6744,
    "title": "Quiosk Marum",
    "name": "Quiosk M094 - Tamoil Marum",
    "city": "Marum",
    "postcode": "9363 TG",
    "address": "Parallelweg 1 B",
    "coords": {
      "lat": 53.1543386,
      "lng": 6.2679561
    },
    "isOpen": true,
    "environment": "Outdoor",
    "contactless": true,
    "products": [
      "Drinks",
      "Snacks"
    ]
  },
  {
    "id": 6129,
    "title": "Quiosk Soest",
    "name": "Quiosk M091 - Tinq Soest",
    "city": "Soest",
    "postcode": "3768 EK",
    "address": "Soesterbergsestraat 76",
    "coords": {
      "lat": 52.1624896,
      "lng": 5.308352699999999
    },
    "isOpen": true,
    "environment": "Outdoor",
    "contactless": true,
    "products": [
      "Drinks",
      "Snacks"
    ]
  },
  {
    "id": 6738,
    "title": "Quiosk Aarle-Rixtel",
    "name": "Quiosk M088 - Tamoil Aarle-Rixtel",
    "city": "Aarle-Rixtel",
    "postcode": "5735 GX",
    "address": "Bosscheweg 96",
    "coords": {
      "lat": 51.5043564,
      "lng": 5.645245
    },
    "isOpen": true,
    "environment": "Outdoor",
    "contactless": true,
    "products": [
      "Drinks",
      "Snacks"
    ]
  },
  {
    "id": 9293,
    "title": "Quiosk Oosterhout",
    "name": "Quiosk M085 - Falcon Oosterhout",
    "city": "Oosterhout",
    "postcode": "4901 AZ",
    "address": "Fazantstraat 5",
    "coords": {
      "lat": 51.6522668,
      "lng": 4.8527702
    },
    "isOpen": true,
    "environment": "Outdoor",
    "contactless": true,
    "products": [
      "Drinks",
      "Snacks"
    ]
  },
  {
    "id": 6733,
    "title": "Quiosk Gouda",
    "name": "Quiosk M083 - Carwash Gouda",
    "city": "Gouda",
    "postcode": "2801 SB",
    "address": "Nieuwe Gouwe O.Z 13 D",
    "coords": {
      "lat": 52.01887259999999,
      "lng": 4.6827881
    },
    "isOpen": true,
    "environment": "Outdoor",
    "contactless": true,
    "products": [
      "Drinks",
      "Snacks"
    ]
  },
  {
    "id": 6730,
    "title": "Quiosk Nijmegen",
    "name": "Quiosk M080 - ANAC Nijmegen Dukenburg",
    "city": "Nijmegen",
    "postcode": "6537 TM",
    "address": "Van Rosenburgweg 106 A",
    "coords": {
      "lat": 51.8214802,
      "lng": 5.784824899999999
    },
    "isOpen": true,
    "environment": "Outdoor",
    "contactless": true,
    "products": [
      "Drinks",
      "Snacks"
    ]
  },
  {
    "id": 6729,
    "title": "Quiosk Delft",
    "name": "Quiosk M079 - Idenburg Delft",
    "city": "Delft",
    "postcode": "2627 AT",
    "address": "Schieweg 81",
    "coords": {
      "lat": 51.9846259,
      "lng": 4.3715388
    },
    "isOpen": true,
    "environment": "Outdoor",
    "contactless": true,
    "products": [
      "Drinks",
      "Snacks"
    ]
  },
  {
    "id": 6728,
    "title": "Quiosk Nieuw-Vennep",
    "name": "Quiosk M078 - Tamoil Nieuw-Vennep",
    "city": "Nieuw-Vennep",
    "postcode": "2153 PJ",
    "address": "Pesetaweg 14",
    "coords": {
      "lat": 52.253277,
      "lng": 4.62699
    },
    "isOpen": true,
    "environment": "Outdoor",
    "contactless": true,
    "products": [
      "Drinks",
      "Snacks"
    ]
  },
  {
    "id": 8885,
    "title": "Quiosk Maurik",
    "name": "Quiosk M077 - Lukoil Maurik",
    "city": "Maurik",
    "postcode": "4021 HG",
    "address": "Doejenburg 200",
    "coords": {
      "lat": 51.9622981,
      "lng": 5.4371507
    },
    "isOpen": true,
    "environment": "Outdoor",
    "contactless": true,
    "products": [
      "Drinks",
      "Snacks"
    ]
  },
  {
    "id": 6674,
    "title": "Quiosk Doornspijk",
    "name": "Quiosk M074 - Tinq Doornspijk",
    "city": "Doornspijk",
    "postcode": "8085 AE",
    "address": "Zuiderzeestraatweg West 24 B",
    "coords": {
      "lat": 52.4260963,
      "lng": 5.8269252
    },
    "isOpen": true,
    "environment": "Outdoor",
    "contactless": true,
    "products": [
      "Drinks",
      "Snacks"
    ]
  },
  {
    "id": 9315,
    "title": "Quiosk Eindhoven",
    "name": "Quiosk M073 - Tinq Eindhoven Eindhovenseweg",
    "city": "Eindhoven",
    "postcode": "5633 BD",
    "address": "Eindhovenseweg 37",
    "coords": {
      "lat": 51.4892858,
      "lng": 5.4957122
    },
    "isOpen": true,
    "environment": "Outdoor",
    "contactless": true,
    "products": [
      "Drinks",
      "Snacks"
    ]
  },
  {
    "id": 9339,
    "title": "Quiosk Valkenswaard",
    "name": "Quiosk M067 - Sakko Valkenswaard",
    "city": "Valkenswaard",
    "postcode": "5552 LZ",
    "address": "Tienendreef 2",
    "coords": {
      "lat": 51.3564213,
      "lng": 5.4443252
    },
    "isOpen": true,
    "environment": "Outdoor",
    "contactless": true,
    "products": [
      "Drinks",
      "Snacks"
    ]
  },
  {
    "id": 6601,
    "title": "Quiosk Arnhem",
    "name": "Quiosk M065 - ANAC Arnhem Overmaat",
    "city": "Arnhem",
    "postcode": "6831 AE",
    "address": "De Overmaat 1",
    "coords": {
      "lat": 51.9512776,
      "lng": 5.882371699999999
    },
    "isOpen": true,
    "environment": "Outdoor",
    "contactless": true,
    "products": [
      "Drinks",
      "Snacks"
    ]
  },
  {
    "id": 6542,
    "title": "Quiosk Eindhoven",
    "name": "Quiosk M062 - ANAC Eindhoven",
    "city": "Eindhoven",
    "postcode": "5628 TA",
    "address": "Brussellaan 5",
    "coords": {
      "lat": 51.4775641,
      "lng": 5.4840957
    },
    "isOpen": true,
    "environment": "Outdoor",
    "contactless": true,
    "products": [
      "Drinks",
      "Snacks"
    ]
  },
  {
    "id": 7405,
    "title": "Quiosk Culemborg",
    "name": "Quiosk M060 - GECU Culemborg",
    "city": "Culemborg",
    "postcode": "4104 AC",
    "address": "Randweg 12",
    "coords": {
      "lat": 51.9444195,
      "lng": 5.221868199999999
    },
    "isOpen": true,
    "environment": "Outdoor",
    "contactless": true,
    "products": [
      "Drinks",
      "Snacks"
    ]
  },
  {
    "id": 6392,
    "title": "Quiosk Uden",
    "name": "Quiosk M058 - Avia Vollenhoven Uden",
    "city": "Uden",
    "postcode": "5401 JB",
    "address": "Bitswijk 4",
    "coords": {
      "lat": 51.6703282,
      "lng": 5.6082176
    },
    "isOpen": true,
    "environment": "Outdoor",
    "contactless": true,
    "products": [
      "Drinks",
      "Snacks"
    ]
  },
  {
    "id": 8809,
    "title": "Quiosk Tilburg",
    "name": "Quiosk M053 - Avia Vollenhoven Tilburg 2",
    "city": "Tilburg",
    "postcode": "5048 AN",
    "address": "Zevenheuvelenweg 24",
    "coords": {
      "lat": 51.5847376,
      "lng": 5.0579389
    },
    "isOpen": true,
    "environment": "Outdoor",
    "contactless": true,
    "products": [
      "Drinks",
      "Snacks"
    ]
  },
  {
    "id": 6363,
    "title": "Quiosk Zandvoort",
    "name": "Quiosk M050 - TinQ Zandvoort",
    "city": "Zandvoort",
    "postcode": "2041 JA",
    "address": "Boulevard Barnaart 58",
    "coords": {
      "lat": 52.38760019999999,
      "lng": 4.535794999999999
    },
    "isOpen": true,
    "environment": "Outdoor",
    "contactless": true,
    "products": [
      "Drinks",
      "Snacks"
    ]
  },
  {
    "id": 8729,
    "title": "Quiosk Rolde",
    "name": "Quiosk M049 - Tinq Rolde",
    "city": "Rolde",
    "postcode": "9452 VB",
    "address": "RIJKSWEG N33 ZUIDZIJDE",
    "coords": {
      "lat": 52.9708141,
      "lng": 6.6151416
    },
    "isOpen": true,
    "environment": "Outdoor",
    "contactless": true,
    "products": [
      "Drinks",
      "Snacks"
    ]
  },
  {
    "id": 6391,
    "title": "Quiosk Tilburg",
    "name": "Quiosk M048 - Avia Vollenhoven Tilburg",
    "city": "Tilburg",
    "postcode": "5048 AN",
    "address": "Zevenheuvelenweg 24",
    "coords": {
      "lat": 51.5847376,
      "lng": 5.0579389
    },
    "isOpen": true,
    "environment": "Outdoor",
    "contactless": true,
    "products": [
      "Drinks",
      "Snacks"
    ]
  },
  {
    "id": 6393,
    "title": "Quiosk Heide",
    "name": "Quiosk M045 - Tamoil Venray / Heide",
    "city": "Heide",
    "postcode": "5812 PB",
    "address": "Deurneseweg 12",
    "coords": {
      "lat": 51.5136901,
      "lng": 5.9622033
    },
    "isOpen": true,
    "environment": "Outdoor",
    "contactless": true,
    "products": [
      "Drinks",
      "Snacks"
    ]
  },
  {
    "id": 9314,
    "title": "Quiosk Eindhoven",
    "name": "Quiosk M044 - Tinq Eindhoven Bisschop",
    "city": "Eindhoven",
    "postcode": "5625 PV",
    "address": "Bisschop Bekkerslaan 1",
    "coords": {
      "lat": 51.4760159,
      "lng": 5.4813521
    },
    "isOpen": true,
    "environment": "Outdoor",
    "contactless": true,
    "products": [
      "Drinks",
      "Snacks"
    ]
  },
  {
    "id": 6337,
    "title": "Quiosk Berkel en Roderijs",
    "name": "Quiosk M043 - Falcon Berkel en Roderijs",
    "city": "Berkel en Roderijs",
    "postcode": "2652 XT",
    "address": "Archimedesstraat 3",
    "coords": {
      "lat": 51.9818535,
      "lng": 4.4521401
    },
    "isOpen": true,
    "environment": "Outdoor",
    "contactless": true,
    "products": [
      "Drinks",
      "Snacks"
    ]
  },
  {
    "id": 8793,
    "title": "Quiosk Wezep",
    "name": "Quiosk M042 - Supertank Wezep",
    "city": "Wezep",
    "postcode": "8091 XK",
    "address": "Rondweg 90",
    "coords": {
      "lat": 52.4673753,
      "lng": 5.9903859
    },
    "isOpen": true,
    "environment": "Outdoor",
    "contactless": true,
    "products": [
      "Drinks",
      "Snacks"
    ]
  },
  {
    "id": 6334,
    "title": "Quiosk Dongen",
    "name": "Quiosk M040 - Carwash Dongen",
    "city": "Dongen",
    "postcode": "5107 RJ",
    "address": "De Slof 54",
    "coords": {
      "lat": 51.6136924,
      "lng": 4.9343606
    },
    "isOpen": true,
    "environment": "Outdoor",
    "contactless": true,
    "products": [
      "Drinks",
      "Snacks"
    ]
  },
  {
    "id": 6312,
    "title": "Quiosk Alblasserdam",
    "name": "Quiosk M037 - Lukoil Alblasserdam",
    "city": "Alblasserdam",
    "postcode": "2952 DG",
    "address": "Nieuwland Parc 421",
    "coords": {
      "lat": 51.845425,
      "lng": 4.6698244
    },
    "isOpen": true,
    "environment": "Outdoor",
    "contactless": true,
    "products": [
      "Drinks",
      "Snacks"
    ]
  },
  {
    "id": 6310,
    "title": "Quiosk Udenhout",
    "name": "Quiosk M035 - Savona Udenhout",
    "city": "Udenhout",
    "postcode": "5071 BL",
    "address": "Kreitenmolenstraat 203",
    "coords": {
      "lat": 51.6048584,
      "lng": 5.1607756
    },
    "isOpen": true,
    "environment": "Outdoor",
    "contactless": true,
    "products": [
      "Drinks",
      "Snacks"
    ]
  },
  {
    "id": 6308,
    "title": "Quiosk Oisterwijk",
    "name": "Quiosk M033 - Savona Oisterwijk",
    "city": "Oisterwijk",
    "postcode": "5061 KC",
    "address": "Industrielaan 5",
    "coords": {
      "lat": 51.5835265,
      "lng": 5.1932495
    },
    "isOpen": true,
    "environment": "Outdoor",
    "contactless": true,
    "products": [
      "Drinks",
      "Snacks"
    ]
  },
  {
    "id": 6301,
    "title": "Quiosk Den Bosch",
    "name": "Quiosk M030 - Tinq Den Bosch",
    "city": "Den Bosch",
    "postcode": "5222 AP",
    "address": "Rietveldenweg 13 F",
    "coords": {
      "lat": 51.6971134,
      "lng": 5.283487399999999
    },
    "isOpen": true,
    "environment": "Outdoor",
    "contactless": true,
    "products": [
      "Drinks",
      "Snacks"
    ]
  },
  {
    "id": 9341,
    "title": "Quiosk Waddinxveen",
    "name": "Quiosk M029 - Supertank Waddinxveen",
    "city": "Waddinxveen",
    "postcode": "2741 ED",
    "address": "Juliana van Stolberglaan 1",
    "coords": {
      "lat": 52.0453179,
      "lng": 4.654851499999999
    },
    "isOpen": true,
    "environment": "Outdoor",
    "contactless": true,
    "products": [
      "Drinks",
      "Snacks"
    ]
  },
  {
    "id": 9184,
    "title": "Quiosk Hijlaard",
    "name": "Quiosk M028 - TinQ Hijlaard",
    "city": "Hijlaard",
    "postcode": "9027 BA",
    "address": "Hoptille 2 A",
    "coords": {
      "lat": 53.16798739999999,
      "lng": 5.7012491
    },
    "isOpen": true,
    "environment": "Outdoor",
    "contactless": true,
    "products": [
      "Drinks",
      "Snacks"
    ]
  },
  {
    "id": 9154,
    "title": "Quiosk Alkmaar",
    "name": "Quiosk M027 - Tinq Alkmaar",
    "city": "Alkmaar",
    "postcode": "1816 ML",
    "address": "Martin Luther Kingweg 10",
    "coords": {
      "lat": 52.6352459,
      "lng": 4.7198923
    },
    "isOpen": true,
    "environment": "Outdoor",
    "contactless": true,
    "products": [
      "Drinks",
      "Snacks"
    ]
  },
  {
    "id": 6297,
    "title": "Quiosk Oss",
    "name": "Quiosk M026 - Tinq Oss",
    "city": "Oss",
    "postcode": "5349 AJ",
    "address": "Kantsingel 8",
    "coords": {
      "lat": 51.7644231,
      "lng": 5.546155
    },
    "isOpen": true,
    "environment": "Outdoor",
    "contactless": true,
    "products": [
      "Drinks",
      "Snacks"
    ]
  },
  {
    "id": 6296,
    "title": "Quiosk Ermelo",
    "name": "Quiosk M025 - Tinq Ermelo",
    "city": "Ermelo",
    "postcode": "3853 JT",
    "address": "Kolbaanweg 25",
    "coords": {
      "lat": 52.3174258,
      "lng": 5.6140381
    },
    "isOpen": true,
    "environment": "Outdoor",
    "contactless": true,
    "products": [
      "Drinks",
      "Snacks"
    ]
  },
  {
    "id": 6295,
    "title": "Quiosk Heerde",
    "name": "Quiosk M024 - Tinq Heerde",
    "city": "Heerde",
    "postcode": "8181 BG",
    "address": "Europaweg 13-15",
    "coords": {
      "lat": 52.398991,
      "lng": 6.046189
    },
    "isOpen": true,
    "environment": "Outdoor",
    "contactless": true,
    "products": [
      "Drinks",
      "Snacks"
    ]
  },
  {
    "id": 6294,
    "title": "Quiosk Waarder",
    "name": "Quiosk M023 - Tinq Waarder",
    "city": "Waarder",
    "postcode": "3466 NV",
    "address": "Verlengde Tuurluur 2",
    "coords": {
      "lat": 52.06482829999999,
      "lng": 4.824137800000001
    },
    "isOpen": true,
    "environment": "Outdoor",
    "contactless": true,
    "products": [
      "Drinks",
      "Snacks"
    ]
  },
  {
    "id": 6293,
    "title": "Quiosk Hoogland",
    "name": "Quiosk M022 - Tinq Amersfoort/Hoogland",
    "city": "Hoogland",
    "postcode": "3828 NR",
    "address": "Bunschoterstraat 9",
    "coords": {
      "lat": 52.1792799,
      "lng": 5.369051
    },
    "isOpen": true,
    "environment": "Outdoor",
    "contactless": true,
    "products": [
      "Drinks",
      "Snacks"
    ]
  },
  {
    "id": 9336,
    "title": "Quiosk Sint Pancras",
    "name": "Quiosk M021 - Tamoil Express Sint Pancras",
    "city": "Sint Pancras",
    "postcode": "1834 DA",
    "address": "De Helling 9",
    "coords": {
      "lat": 52.6628577,
      "lng": 4.7804594
    },
    "isOpen": true,
    "environment": "Outdoor",
    "contactless": true,
    "products": [
      "Drinks",
      "Snacks"
    ]
  },
  {
    "id": 7629,
    "title": "Quiosk Sliedrecht",
    "name": "Quiosk M020 - Lukoil Sliedrecht",
    "city": "Sliedrecht",
    "postcode": "3364 AZ",
    "address": "Marisstraat 1",
    "coords": {
      "lat": 51.8327294,
      "lng": 4.755761
    },
    "isOpen": true,
    "environment": "Outdoor",
    "contactless": true,
    "products": [
      "Drinks",
      "Snacks"
    ]
  },
  {
    "id": 6273,
    "title": "Quiosk Hengelo",
    "name": "Quiosk M019 - Avia Weghorst Hengelo",
    "city": "Hengelo",
    "postcode": "7552 BH",
    "address": "Kuipersdijk 26",
    "coords": {
      "lat": 52.2528173,
      "lng": 6.806312600000001
    },
    "isOpen": true,
    "environment": "Outdoor",
    "contactless": true,
    "products": [
      "Drinks",
      "Snacks"
    ]
  },
  {
    "id": 6272,
    "title": "Quiosk Veenendaal",
    "name": "Quiosk M018 - Tinq Veenendaal",
    "city": "Veenendaal",
    "postcode": "3903 LA",
    "address": "Wageningselaan 22",
    "coords": {
      "lat": 52.0112391,
      "lng": 5.5715017
    },
    "isOpen": true,
    "environment": "Outdoor",
    "contactless": true,
    "products": [
      "Drinks",
      "Snacks"
    ]
  },
  {
    "id": 6271,
    "title": "Quiosk Waddinxveen",
    "name": "Quiosk M017 - Tinq Waddinxveen",
    "city": "Waddinxveen",
    "postcode": "2741 KS",
    "address": "Henegouwerweg 26",
    "coords": {
      "lat": 52.0446967,
      "lng": 4.6605997
    },
    "isOpen": true,
    "environment": "Outdoor",
    "contactless": true,
    "products": [
      "Drinks",
      "Snacks"
    ]
  },
  {
    "id": 6264,
    "title": "Quiosk Leerdam",
    "name": "Quiosk M013 - Lukoil Leerdam",
    "city": "Leerdam",
    "postcode": "4143 HX",
    "address": "Constructiestraat 4",
    "coords": {
      "lat": 51.9001264,
      "lng": 5.1052311
    },
    "isOpen": true,
    "environment": "Outdoor",
    "contactless": true,
    "products": [
      "Drinks",
      "Snacks"
    ]
  },
  {
    "id": 8904,
    "title": "Quiosk Velsen-Noord",
    "name": "Quiosk M011 - Argos GP Groot Velsen",
    "city": "Velsen-Noord",
    "postcode": "",
    "address": "Concordiastraat 75 100",
    "coords": {
      "lat": 52.4674992,
      "lng": 4.6431172
    },
    "isOpen": true,
    "environment": "Outdoor",
    "contactless": true,
    "products": [
      "Drinks",
      "Snacks"
    ]
  },
  {
    "id": 6189,
    "title": "Quiosk Wormerveer",
    "name": "Quiosk M008 - Tinq Wormerveer",
    "city": "Wormerveer",
    "postcode": "1521 AG",
    "address": "Wandelweg 6",
    "coords": {
      "lat": 52.4899971,
      "lng": 4.7905285
    },
    "isOpen": true,
    "environment": "Outdoor",
    "contactless": true,
    "products": [
      "Drinks",
      "Snacks"
    ]
  },
  {
    "id": 8787,
    "title": "Quiosk Coevorden",
    "name": "DUO Quiosk V356 - Argos Coevorden",
    "city": "Coevorden",
    "postcode": "7741 EK",
    "address": "Stationsstraat 1",
    "coords": {
      "lat": 52.66635059999999,
      "lng": 6.736360200000001
    },
    "isOpen": true,
    "environment": "Outdoor",
    "contactless": true,
    "products": [
      "Drinks",
      "Snacks"
    ]
  },